sources_sourceID,river,city,state,country,region,measurement_location,exact_lat,exact_lng,street_number,street_name,street_lat,street_lng,feature_class,miles_from_site,post_code,place_name,county_number,county_name,state_name,agency,agency_id,full_site_name,unique_site_name
0,-,-,-,-,-,-,-,-,-,-,-,-,-,-,-,-,-,-,-,-,-,-,-
1," Salmon River Efsf","Valley County",ID,"United States",West," Stibnite Rd",44.93477778,-115.33669440,,"Stibnite Rd",44.93454,-115.3369,S1400,0.03,,,85,Valley,Idaho,USGS,13311250," Salmon River Efsf @ Valley County, ID"," Salmon River Efsf @ Valley County, ID"
2,"003S028E34Rs01M Hot","Mono County",CA,"United States",West," School Rd",37.63937816,-118.86318690,,"School Rd",37.63854,-118.8628,S1400,0.1,,,51,Mono,California,USGS,373822118514401,"003S028E34Rs01M Hot @ Mono County, CA","003S028E34Rs01M Hot @ Mono County, CA"
3,"014S021E17P001M ",Fresno,CA,"United States",West,"5414 E Kaviland, ZIP: 93725",36.70972220,-119.70872220,5414,"E Kaviland",36.71005,-119.70872,S1400,0.04,93725,Fresno,19,Fresno,California,USGS,364200119420002,"014S021E17P001M  @ Fresno, CA","014S021E17P001M  @ Fresno, CA"
4,"014S021E17Q001M ",Fresno,CA,"United States",West," S Minnewawa",36.70952778,-119.70900000,,"S Minnewawa",36.70952,-119.70917,S1400,0.02,,Fresno,19,Fresno,California,USGS,364200119420001,"014S021E17Q001M  @ Fresno, CA","014S021E17Q001M  @ Fresno, CA"
5,"016S020E14C001S ","Imperial County",CA,"United States",West," Ogilby Rd",32.77694910,-114.83725560,,"Ogilby Rd",32.77695,-114.83694,S1400,0.03,,,25,Imperial,California,USGS,324630114501501,"016S020E14C001S  @ Imperial County, CA","016S020E14C001S  @ Imperial County, CA"
6,"016S020E49R001S ","Imperial County",CA,"United States",West,,32.74070297,-114.88675240,,,32.74067,-114.88673,S1400,0,,,25,Imperial,California,USGS,324426114530901,"016S020E49R001S  @ Imperial County, CA","016S020E49R001S  @ Imperial County, CA"
7,"016S020E51F001S ","Imperial County",CA,"United States",West,,32.74732769,-114.86405120,,,32.74713,-114.86415,S1400,0.02,,,25,Imperial,California,USGS,324450114515101,"016S020E51F001S  @ Imperial County, CA","016S020E51F001S  @ Imperial County, CA"
8,"016S020E58J001S ",,N/A,,N/A,,32.71347869,-114.83486350,,,,,,,,,,,,USGS,324248114500601,"016S020E58J001S ","016S020E58J001S "
9,"016S021E30E001S ",,N/A,,N/A,,32.73926110,-114.80670100,,,,,,,,,,,,USGS,324421114482101,"016S021E30E001S ","016S021E30E001S "
10,"082N07W33Caa 1990Till","Cedar Rapids",IA,"United States",Midwest," I- 380",41.87195075,-91.66739890,,"I- 380",41.87173,-91.66972,S1100,0.19,,"Cedar Rapids",113,Linn,Iowa,USGS,415219091400210,"082N07W33Caa 1990Till @ Cedar Rapids, IA","082N07W33Caa 1990Till @ Cedar Rapids, IA"
11,"17S.05W.13.22 ",,N/A,,N/A,,32.83442500,-107.30333330,,,,,,,,,,,,USGS,325002107181201,"17S.05W.13.22 ","17S.05W.13.22 "
12,"19S.02W.16.3213 ","Dona Ana County",NM,"United States",Southwest,,32.65434720,-107.05509720,,,32.65427,-107.05483,S1400,0.03,,,13,"Doña Ana","New Mexico",USGS,323917107031601,"19S.02W.16.3213  @ Doña Ana County, NM","19S.02W.16.3213  @ Dona County, NM"
13,"19S.02W.17.1414 ","Dona Ana County",NM,"United States",Southwest," Kit Carson Rd, ZIP: 87940",32.65820000,-107.07100560,,"Kit Carson Rd",32.65794,-107.0711,S1400,0.03,87940,,13,"Doña Ana","New Mexico",USGS,323930107041401,"19S.02W.17.1414  @ Doña Ana County, NM","19S.02W.17.1414  @ Dona County, NM"
14,"19S.02W.21.443 ","Dona Ana County",NM,"United States",Southwest,"445 Polvadera Rd, ZIP: 87940",32.63456389,-107.04525830,445,"Polvadera Rd",32.63454,-107.04526,S1400,0,87940,,13,"Doña Ana","New Mexico",USGS,323802107024101,"19S.02W.21.443  @ Doña Ana County, NM","19S.02W.21.443  @ Dona County, NM"
15,"19S.02W.26.4424 ","Dona Ana County",NM,"United States",Southwest," Kit Carson Rd",32.62209167,-107.00793060,,"Kit Carson Rd",32.62212,-107.00792,S1400,0,,,13,"Doña Ana","New Mexico",USGS,323722107002801,"19S.02W.26.4424  @ Doña Ana County, NM","19S.02W.26.4424  @ Dona County, NM"
16,"19S.03W.07.131A ","Dona Ana County",NM,"United States",Southwest," Cedar Grove St",32.67305833,-107.19620560,,"Cedar Grove St",32.67306,-107.19631,S1400,0.01,,,13,"Doña Ana","New Mexico",USGS,324021107114301,"19S.03W.07.131A  @ Doña Ana County, NM","19S.03W.07.131A  @ Dona County, NM"
17,"19S.04W.01.214 H-13","Dona Ana County",NM,"United States",Southwest," River Levee",32.69014167,-107.20293890,,"River Levee",32.69013,-107.20295,S1400,0,,,13,"Doña Ana","New Mexico",USGS,324122107120802,"19S.04W.01.214 H-13 @ Doña Ana County, NM","19S.04W.01.214 H-13 @ Dona County, NM"
18,"23S 43W","Hamilton County",KS,"United States",Midwest," Co Rd CC 8/10",38.02141667,-102.04394440,,"Co Rd CC 8/10",38.02142,-102.04441,S1400,0.04,,,75,Hamilton,Kansas,USGS,380117102023801,"23S 43W @ Hamilton County, KS","23S 43W @ Hamilton County, KS"
19,"24S 03W","Harvey County",KS,"United States",Midwest," S Willow Lake Rd, RB1-MS Deep ",37.99834480,-97.61093260,,"S Willow Lake Rd",37.99835,-97.61039,S1400,0.05,,,79,Harvey,Kansas,USGS,375954097363801,"24S 03W @ Harvey County, KS","24S 03W @ Harvey County, KS near  S Willow Lake Rd, RB1-MS Deep "
20,"24S 03W","Harvey County",KS,"United States",Midwest," S Willow Lake Rd, RB1-MS Shallow",37.99834480,-97.61093260,,"S Willow Lake Rd",37.99835,-97.61039,S1400,0.05,,,79,Harvey,Kansas,USGS,375954097363801,"24S 03W @ Harvey County, KS","24S 03W @ Harvey County, KS near  S Willow Lake Rd, RB1-MS Shallow"
21,"24S 43W",,N/A,,N/A,,37.99330556,-102.04413890,,,,,,,,,,,,USGS,375936102023901,"24S 43W","24S 43W"
22,"25S 01W","Sedgwick County",KS,"United States",Midwest,"11260 N 119th St W, ZIP: 67135 (DMW-S10 NR)",37.89084510,-97.48198720,11260,"N 119th St W",37.89085,-97.48214,S1400,0.01,67135,,173,Sedgwick,Kansas,USGS,375327097285401,"25S 01W @ Sedgwick County, KS","25S 01W @ Sedgwick County, KS near 11260 N 119th St W, ZIP: 67135 (DMW-S10 NR)"
23,"25S 01W","Sedgwick County",KS,"United States",Midwest,"11260 N 119th St W, ZIP: 67135 (SMW-S11 NR)",37.89084510,-97.48198720,11260,"N 119th St W",37.89085,-97.48214,S1400,0.01,67135,,173,Sedgwick,Kansas,USGS,375327097285401,"25S 01W @ Sedgwick County, KS","25S 01W @ Sedgwick County, KS near 11260 N 119th St W, ZIP: 67135 (SMW-S11 NR)"
24,"25S 01W","Sedgwick County",KS,"United States",Midwest,"11308 N 119th St W, ZIP: 67135 (DMW-S14 NR)",37.89223399,-97.48032040,11308,"N 119th St W",37.89224,-97.48213,S1400,0.16,67135,,173,Sedgwick,Kansas,USGS,375332097284801,"25S 01W @ Sedgwick County, KS","25S 01W @ Sedgwick County, KS near 11308 N 119th St W, ZIP: 67135 (DMW-S14 NR)"
25,"25S 01W","Sedgwick County",KS,"United States",Midwest,"11308 N 119th St W, ZIP: 67135 (SMW-S13 NR)",37.89223399,-97.48032040,11308,"N 119th St W",37.89224,-97.48213,S1400,0.16,67135,,173,Sedgwick,Kansas,USGS,375332097284801,"25S 01W @ Sedgwick County, KS","25S 01W @ Sedgwick County, KS near 11308 N 119th St W, ZIP: 67135 (SMW-S13 NR)"
26,34H505,Brunswick,GA,"United States",Southeast,"571 Newcastle St, ZIP: 31520",31.13634196,-81.49093360,571,"Newcastle St",31.13643,-81.49069,S1200,0.02,31520,Brunswick,127,Glynn,Georgia,USGS,310810081292802,"34H505  @ Brunswick, GA","34H505  @ Brunswick, GA"
27,34H514,Brunswick,GA,"United States",Southeast,"2001 I St, ZIP: 31520",31.15861110,-81.48611110,2001,"I St",31.15759,-81.48549,S1400,0.13,31520,Brunswick,127,Glynn,Georgia,USGS,310931081291002,"34H514  @ Brunswick, GA","34H514  @ Brunswick, GA"
28,37N11E-19.1D,Lemont,IL,"United States",Midwest,"16177 Donohoe Rd, ZIP: 60439",41.67777778,-88.01166670,16177,"Donohoe Rd",41.67776,-88.01166,S1400,0,60439,Lemont,31,Cook,Illinois,USGS,414040088004201,"37N11E-19.1D  @ Lemont, IL","37N11E-19.1D  @ Lemont, IL"
29,37N11E-20.8D1,Lemont,IL,"United States",Midwest,"16000 Donohoe Rd, ZIP: 60439",41.67687778,-88.00889170,16000,"Donohoe Rd",41.67828,-88.00906,S1400,0.16,60439,Lemont,31,Cook,Illinois,USGS,414037088003201,"37N11E-20.8D1  @ Lemont, IL","37N11E-20.8D1  @ Lemont, IL"
30,37N11E-20.8E,Lemont,IL,"United States",Midwest,"15996 Donohoe Rd, ZIP: 60439",41.67825556,-88.00897780,15996,"Donohoe Rd",41.67829,-88.00898,S1400,0,60439,Lemont,31,Cook,Illinois,USGS,414042088003201,"37N11E-20.8E  @ Lemont, IL","37N11E-20.8E  @ Lemont, IL"
31,40N7E-18.3H,"Lily Lake",IL,"United States",Midwest,"State Rte 47",41.95361110,-88.47983330,,"State Rte 47",41.95363,-88.47777,S1200,0.17,,"Lily Lake",89,Kane,Illinois,USGS,415713088284701,"40N7E-18.3H  @ Lily Lake, IL","40N7E-18.3H  @ Lily Lake, IL"
32,"43N5E-27.4H1 (14-Ril-S)","McHenry County",IL,"United States",Midwest,"22553 Harmony Rd, ZIP: 60152",42.18222220,-88.63555560,22553,"Harmony Rd",42.18247,-88.6356,S1400,0.03,60152,,111,McHenry,Illinois,USGS,421056088380801,"43N5E-27.4H1 (14-Ril-S) @ McHenry County, IL","43N5E-27.4H1 (14-Ril-S) @ McHenry County, IL"
33,"44N5E-30.8C1 (10-Mar-S)",,N/A,,N/A,MAR,42.25916667,-88.70500000,,,,,,,,,,,,USGS,421533088421801,"44N5E-30.8C1 (10-Mar-S)","44N5E-30.8C1 (10-Mar-S)"
34,44N9E-20.7C,"Island Lake",IL,"United States",Midwest,"827 Quincy Ct, ZIP: 60042",42.27608330,-88.21633330,827,"Quincy Ct",42.27609,-88.21633,S1400,0,60042,"Island Lake",111,McHenry,Illinois,USGS,421633088125801,"44N9E-20.7C  @ Island Lake, IL","44N9E-20.7C  @ Island Lake, IL"
35,"45N8E-17.7H1 (9-Mch-S)","McHenry County",IL,"United States",Midwest,"6917 McCullom Lake Rd, ZIP: 60097",42.38555556,-88.33222220,6917,"McCullom Lake Rd",42.38564,-88.33222,S1400,0.01,60097,,111,McHenry,Illinois,USGS,01104370,"45N8E-17.7H1 (9-Mch-S) @ McHenry County, IL","45N8E-17.7H1 (9-Mch-S) @ McHenry County, IL"
36,"46N8E-08.2E1 (4-Rch-S)","McHenry County",IL,"United States",Midwest,"6300 Kenosha St, ZIP: 60071",42.48000000,-88.31944440,6300,"Kenosha St",42.47965,-88.31944,S1200,0.04,60071,,111,McHenry,Illinois,USGS,422848088191001,"46N8E-08.2E1 (4-Rch-S) @ McHenry County, IL","46N8E-08.2E1 (4-Rch-S) @ McHenry County, IL"
37,"8-4161-01 Kaho",Kalaoa,HI,"United States",N/A,,19.68723889,-156.02916390,,,19.68585,-156.02922,S1500,0.15,,Kalaoa,1,Hawaii,Hawaii,USGS,194125156015501,"8-4161-01 Kaho @ Kalaoa, HI","8-4161-01 Kaho @ Kalaoa, HI"
38,"8-4161-02 Kaho",Kalaoa,HI,"United States",N/A,,19.68584444,-156.02361390,,,19.68577,-156.0236,S1500,0.01,,Kalaoa,1,Hawaii,Hawaii,USGS,194120156013501,"8-4161-02 Kaho @ Kalaoa, HI","8-4161-02 Kaho @ Kalaoa, HI"
39,"Abercorn Creek",,N/A,,N/A,,32.24916667,-81.15361110,,,,,,,,,,,,USGS,02198820,"Abercorn Creek","Abercorn Creek"
40,"Abercorn Creek","Effingham County",GA,"United States",Southeast,"401 Abercorn Rd, ZIP: 31326",32.25575370,-81.17816870,401,"Abercorn Rd",32.2561,-81.17868,S1400,0.06,31326,,103,Effingham,Georgia,USGS,02198810,"Abercorn Creek @ Effingham County, GA","Abercorn Creek @ Effingham County, GA"
41,"Accotink Creek",Fairfax,VA,"United States",Southeast,"Ranger Rd",38.86624167,-77.28638330,,"Ranger Rd",38.86655,-77.28636,S1400,0.03,,Fairfax,600,"Fairfax (city)",Virginia,USGS,0165389205,"Accotink Creek @ Fairfax, VA","Accotink Creek @ Fairfax, VA near  Ranger Rd"
42,"Accotink Creek",Fairfax,VA,"United States",Southeast,"3301 Old Lee Hwy, ZIP: 22030",38.86133889,-77.27690830,3301,"Old Lee Hwy",38.86172,-77.27743,S1400,0.06,22030,Fairfax,600,"Fairfax (city)",Virginia,USGS,0165389480,"Accotink Creek @ Fairfax, VA","Accotink Creek @ Fairfax, VA near 3301 Old Lee Hwy, ZIP: 22030"
43,"Accotink Creek",Ravensworth,VA,"United States",Southeast,"8192 Braddock Rd, ZIP: 22151",38.81289066,-77.22831580,8192,"Braddock Rd",38.81116,-77.2283,S1400,0.19,22151,Ravensworth,59,Fairfax,Virginia,USGS,01654000,"Accotink Creek @ Ravensworth, VA","Accotink Creek @ Ravensworth, VA"
44,"Adair Creek",Independence,MO,"United States",Midwest,"4307 S 71 Byp, ZIP: 64055",39.03777778,-94.36333330,4307,"S 71 Byp",39.03778,-94.3634,S1400,0.01,64055,Independence,95,Jackson,Missouri,USGS,06893830,"Adair Creek @ Independence, MO","Adair Creek @ Independence, MO"
45,"Adobe Creek","Mesa County",CO,"United States",West,"1919 US Hwy 6, ZIP: 81521",39.13692540,-108.69732050,1919,"US Hwy 6",39.13701,-108.69728,S1200,0.01,81521,,77,Mesa,Colorado,USGS,09152900,"Adobe Creek @ Mesa County, CO","Adobe Creek @ Mesa County, CO"
46,"Ady Canal",,N/A,,N/A,WORDEN,42.08989167,-121.86436390,,,,,,,,,,,,USGS,420524121515200,"Ady Canal","Ady Canal"
47,"Agency Lake",,N/A,,N/A,"NORTH - AGN",42.55958020,-121.94640570,,,,,,,,,,,,USGS,423335121564300,"Agency Lake","Agency Lake near NORTH - AGN"
48,"Agency Lake",,N/A,,N/A,"SOUTH - AGS",42.52344136,-121.98540620,,,,,,,,,,,,USGS,423124121583400,"Agency Lake","Agency Lake near SOUTH - AGS"
49,Aiw,"Horry County",SC,"United States",Southeast,"1062 Waterway Ln, ZIP: 29572",33.79850570,-78.75307469,1062,"Waterway Ln",33.79749,-78.7542,S1400,0.15,29572,,51,Horry,"South Carolina",USGS,02110755,"Aiw  @ Horry County, SC","Aiw  @ Horry County, SC"
50,Aiw,"North Myrtle Beach",SC,"United States",Southeast,"2192 Sea Mountain Hwy, ZIP: 29582",33.85156120,-78.65584830,2192,"Sea Mountain Hwy",33.85141,-78.65604,S1400,0.02,29582,"North Myrtle Beach",51,Horry,"South Carolina",USGS,02110777,"Aiw  @ North Myrtle Beach, SC","Aiw  @ North Myrtle Beach, SC"
51,"Aiw @ Golf Course",,N/A,,N/A,,33.74072759,-78.86669280,,,,,,,,,,,,USGS,02110760,"Aiw @ Golf Course","Aiw @ Golf Course"
52,"Aiw @ Strand Airport",,N/A,,N/A,,33.82128347,-78.71862870,,,,,,,,,,,,USGS,02110770,"Aiw @ Strand Airport","Aiw @ Strand Airport"
53,"Alafia River",Bloomingdale,FL,"United States",Southeast,"901 River Rapids Ave, ZIP: 33511",27.85891477,-82.27370210,901,"River Rapids Ave",27.85943,-82.27303,S1400,0.09,33511,Bloomingdale,57,Hillsborough,Florida,USGS,02301638,"Alafia River @ Bloomingdale, FL","Alafia River @ Bloomingdale, FL"
54,"Alafia River",Gibsonton,FL,"United States",Southeast,"9499 S 50th St, ZIP: 33619",27.85974739,-82.38425980,9499,"S 50th St",27.86016,-82.38371,S1200,0.07,33619,Gibsonton,57,Hillsborough,Florida,USGS,02301721,"Alafia River @ Gibsonton, FL","Alafia River @ Gibsonton, FL near 9499 S 50th St, ZIP: 33619"
55,"Alafia River",Gibsonton,FL,"United States",Southeast,"9801 Vaughn St, ZIP: 33534",27.85696987,-82.35759260,9801,"Vaughn St",27.85672,-82.35648,S1400,0.11,33534,Gibsonton,57,Hillsborough,Florida,USGS,02301719,"Alafia River @ Gibsonton, FL","Alafia River @ Gibsonton, FL near 9801 Vaughn St, ZIP: 33534"
56,"Alafia River",Riverview,FL,"United States",Southeast,"10989 Elliot St, ZIP: 33578",27.86780308,-82.31981410,10989,"Elliot St",27.86889,-82.3198,S1400,0.12,33578,Riverview,57,Hillsborough,Florida,USGS,02301718,"Alafia River @ Riverview, FL","Alafia River @ Riverview, FL"
57,"Alameda Creek",Fremont,CA,"United States",West,"1608 California Pottery Company Rd, ZIP: 94536",37.58715679,-121.96079300,1608,"California Pottery Company Rd",37.58678,-121.96064,S1400,0.04,94536,Fremont,1,Alameda,California,USGS,11179000,"Alameda Creek @ Fremont, CA","Alameda Creek @ Fremont, CA"
58,"Alamo Cn",Pleasanton,CA,"United States",West,"7215 Johnson Dr, ZIP: 94588",37.69444444,-121.91944440,7215,"Johnson Dr",37.69461,-121.91902,S1400,0.04,94588,Pleasanton,1,Alameda,California,USGS,11174600,"Alamo Cn @ Pleasanton, CA","Alamo Cn @ Pleasanton, CA"
59,"Alamo River","Imperial County",CA,"United States",West,,33.10444444,-115.54416670,,,33.10404,-115.54552,S1400,0.13,,,25,Imperial,California,USGS,10254670,"Alamo River @ Imperial County, CA","Alamo River @ Imperial County, CA"
60,"Alamosa River",,N/A,,N/A,,37.37472769,-106.33475580,,,,,,,,,,,,USGS,08236000,"Alamosa River","Alamosa River"
61,"Alamosa River","Conejos County",CO,"United States",West,,37.35278344,-106.27753240,,,37.35344,-106.27788,S1400,0.08,,,21,Conejos,Colorado,USGS,08236500,"Alamosa River @ Conejos County, CO","Alamosa River @ Conejos County, CO"
62,"Alamosa River","Rio Grande County",CO,"United States",West,"Fs 250",37.40278317,-106.45059200,,"Fs 250",37.40355,-106.44953,S1400,0.13,,,105,"Rio Grande",Colorado,USGS,08235700,"Alamosa River @ Rio Grande County, CO","Alamosa River @ Rio Grande County, CO near  Fs 250"
63,"Alamosa River","Rio Grande County",CO,"United States",West,"43256 Fs 250",37.40250568,-106.52198210,43256,"Fs 250",37.40326,-106.5226,S1400,0.1,,,105,"Rio Grande",Colorado,USGS,08235250,"Alamosa River @ Rio Grande County, CO","Alamosa River @ Rio Grande County, CO near 43256 Fs 250"
64,"Albemarle Sound",,N/A,,N/A,,36.00182868,-76.39299220,,,,,,,,,,,,USGS,0208115600,"Albemarle Sound","Albemarle Sound"
65,"Albergotti Creek",Beaufort,SC,"United States",Southeast,"301 Geiger Blvd, ZIP: 29902",32.45324693,-80.70177290,301,"Geiger Blvd",32.45361,-80.70199,S1400,0.05,29902,Beaufort,13,Beaufort,"South Carolina",USGS,02176587,"Albergotti Creek @ Beaufort, SC","Albergotti Creek @ Beaufort, SC"
66,"Alcovy River","Gwinnett County",GA,"United States",Southeast,"2376 New Hope Rd, ZIP: 30019",33.91760730,-83.88795820,2376,"New Hope Rd",33.9172,-83.888,S1400,0.05,30019,,135,Gwinnett,Georgia,USGS,02208150,"Alcovy River @ Gwinnett County, GA","Alcovy River @ Gwinnett County, GA"
67,"Alcovy River","Newton County",GA,"United States",Southeast,"465 Alcovy Trestle Rd, ZIP: 30014",33.64011554,-83.77906740,465,"Alcovy Trestle Rd",33.63949,-83.77914,S1400,0.07,30014,,217,Newton,Georgia,USGS,02208450,"Alcovy River @ Newton County, GA","Alcovy River @ Newton County, GA"
68,"Alger Creek","Genesee County",MI,"United States",Midwest,"8406 Hill Rd, ZIP: 48473",42.94197330,-83.84606980,8406,"Hill Rd",42.94185,-83.84607,S1400,0.01,48473,,49,Genesee,Michigan,USGS,041482663,"Alger Creek @ Genesee County, MI","Alger Creek @ Genesee County, MI"
69,"Aliso Creek",,N/A,,N/A,,33.26444444,-117.44222220,,,,,,,,,,,,USGS,11046072,"Aliso Creek","Aliso Creek"
70,"Allegheny River",Franklin,PA,"United States",Northeast,"200 8th St, ZIP: 16323",41.38950270,-79.82033220,200,"8th St",41.38935,-79.82045,S1200,0.02,16323,Franklin,121,Venango,Pennsylvania,USGS,03025500,"Allegheny River @ Franklin, PA","Allegheny River @ Franklin, PA"
71,"Allegheny River",Plum,PA,"United States",Northeast,"Barking Rd",40.53617880,-79.81477140,,"Barking Rd",40.53559,-79.81364,S1400,0.12,,Plum,3,Allegheny,Pennsylvania,USGS,03049640,"Allegheny River @ Plum, PA","Allegheny River @ Plum, PA"
72,"Allegheny River","Port Allegany",PA,"United States",Northeast,"Grand Army of the Republic Hwy",41.81867578,-78.29279129,,"Grand Army of the Republic Hwy",41.8187,-78.2928,S1200,0,,"Port Allegany",83,McKean,Pennsylvania,USGS,03007800,"Allegheny River @ Port Allegany, PA","Allegheny River @ Port Allegany, PA"
73,"Allen Creek","Mecklenburg County",VA,"United States",Southeast,"23016 US Hwy 58, ZIP: 23917",36.67958589,-78.32666400,23016,"US Hwy 58",36.67962,-78.32666,S1200,0,23917,,117,Mecklenburg,Virginia,USGS,02079640,"Allen Creek @ Mecklenburg County, VA","Allen Creek @ Mecklenburg County, VA"
74,"Allen Creek","Wyoming County",WV,"United States",Southeast,"Wyco Hollow Rd",37.59261440,-81.34649100,,"Wyco Hollow Rd",37.59297,-81.34659,S1400,0.04,,,109,Wyoming,"West Virginia",USGS,03202240,"Allen Creek @ Wyoming County, WV","Allen Creek @ Wyoming County, WV"
75,"Alligator River",,N/A,,N/A,,35.93293670,-75.99602760,,,,,,,,,,,,USGS,0208117835,"Alligator River","Alligator River"
76,"Altamaha River","Glynn County",GA,"United States",Southeast,"Altamaha Park Rd",31.42716717,-81.60538580,,"Altamaha Park Rd",31.42712,-81.60648,S1400,0.1,,,127,Glynn,Georgia,USGS,02226160,"Altamaha River @ Glynn County, GA","Altamaha River @ Glynn County, GA"
77,"Altamont Creek",Livermore,CA,"United States",West,"5658 Firestone Rd, ZIP: 94551",37.72298447,-121.72911890,5658,"Firestone Rd",37.72273,-121.72912,S1400,0.03,94551,Livermore,1,Alameda,California,USGS,11176140,"Altamont Creek @ Livermore, CA","Altamont Creek @ Livermore, CA"
78,"Anclote River","Pasco County",FL,"United States",Southeast," Perrine Ranch Rd, ZIP: 34655",28.19417866,-82.71843379,,"Perrine Ranch Rd",28.19426,-82.71849,S1400,0.01,34655,,101,Pasco,Florida,USGS,02310050,"Anclote River @ Pasco County, FL","Anclote River @ Pasco County, FL"
79,"Anclote River","Pinellas County",FL,"United States",Southeast,"1805 Oceola St, ZIP: 34689",28.17167920,-82.78482450,1805,"Oceola St",28.17154,-82.78453,S1400,0.03,34689,,103,Pinellas,Florida,USGS,02310207,"Anclote River @ Pinellas County, FL","Anclote River @ Pinellas County, FL"
80,"Anclote River","Tarpon Springs",FL,"United States",Southeast,"N Pinellas Ave",28.15779109,-82.75649030,,"N Pinellas Ave",28.15778,-82.75681,S1200,0.03,,"Tarpon Springs",103,Pinellas,Florida,USGS,02310175,"Anclote River @ Tarpon Springs, FL","Anclote River @ Tarpon Springs, FL"
81,"Androscoggin River","Franklin County",ME,"United States",Northeast,"Riley Rd",44.50250000,-70.22444440,,"Riley Rd",44.50176,-70.22496,S1400,0.09,,,7,Franklin,Maine,USGS,01055100,"Androscoggin River @ Franklin County, ME","Androscoggin River @ Franklin County, ME"
82,"Animas River","San Juan County",CO,"United States",West,"Co Rd 33",37.79027460,-107.66756140,,"Co Rd 33",37.79066,-107.6663,S1400,0.12,,,111,"San Juan",Colorado,USGS,09359020,"Animas River @ San Juan County, CO","Animas River @ San Juan County, CO"
83,"Annaricken Brook","Burlington County",NJ,"United States",Northeast,"110 Island Rd, ZIP: 8022",40.05527778,-74.70194440,110,"Island Rd",40.05536,-74.70225,S1400,0.03,8022,,5,Burlington,"New Jersey",USGS,01464578,"Annaricken Brook @ Burlington County, NJ","Annaricken Brook @ Burlington County, NJ"
84,"Antelope Creek",Lincoln,NE,"United States",Midwest,"6209 Pioneers Blvd, ZIP: 68506",40.76944530,-96.63473710,6209,"Pioneers Blvd",40.7697,-96.63474,S1400,0.03,68506,Lincoln,109,Lancaster,Nebraska,USGS,06803197,"Antelope Creek @ Lincoln, NE","Antelope Creek @ Lincoln, NE"
85,"Antes Creek","Lycoming County",PA,"United States",Northeast,"3900 S State Rte 44, ZIP: 17740",41.16118479,-77.21719169,3900,"S State Rte 44",41.16124,-77.21649,S1200,0.06,17740,,81,Lycoming,Pennsylvania,USGS,01549755,"Antes Creek @ Lycoming County, PA","Antes Creek @ Lycoming County, PA"
86,"Apalachee River","Gwinnett County",GA,"United States",Southeast,"2906 Fence Rd NE, ZIP: 30019",34.01038289,-83.89406800,2906,"Fence Rd NE",34.01046,-83.89418,S1400,0.01,30019,,135,Gwinnett,Georgia,USGS,02218565,"Apalachee River @ Gwinnett County, GA","Apalachee River @ Gwinnett County, GA"
87,"Apalachee River","Morgan County",GA,"United States",Southeast,"Greensboro Hwy",33.60873670,-83.34932860,,"Greensboro Hwy",33.60834,-83.34916,S1200,0.05,,,211,Morgan,Georgia,USGS,02219500,"Apalachee River @ Morgan County, GA","Apalachee River @ Morgan County, GA"
88,"Apple River","Lafayette County",WI,"United States",Midwest,"16083 Co Rd W",42.52278230,-90.13401430,16083,"Co Rd W",42.52288,-90.13401,S1400,0.01,,,65,Lafayette,Wisconsin,USGS,05418731,"Apple River @ Lafayette County, WI","Apple River @ Lafayette County, WI"
89,"Appomattox River","Amelia County",VA,"United States",Southeast,"Mattoax Ln",37.42153845,-77.85888760,,"Mattoax Ln",37.41982,-77.85903,S1400,0.19,,,7,Amelia,Virginia,USGS,02040000,"Appomattox River @ Amelia County, VA","Appomattox River @ Amelia County, VA"
90,"Appomattox River",Farmville,VA,"United States",Southeast,"564 N Main St, ZIP: 23901",37.30709650,-78.38860700,564,"N Main St",37.30727,-78.38915,S1200,0.05,23901,Farmville,147,"Prince Edward",Virginia,USGS,02039500,"Appomattox River @ Farmville, VA","Appomattox River @ Farmville, VA"
91,"Appomattox River",Matoaca,VA,"United States",Southeast,"21899 Pickett Ave, ZIP: 23803",37.22515050,-77.47526300,21899,"Pickett Ave",37.22533,-77.47616,S1400,0.08,23803,Matoaca,41,Chesterfield,Virginia,USGS,02041650,"Appomattox River @ Matoaca, VA","Appomattox River @ Matoaca, VA"
92,"Appoquinimink River","New Castle County",DE,"United States",Northeast,"793 Silver Run Rd, ZIP: 19709",39.46594444,-75.61352778,793,"Silver Run Rd",39.4659,-75.61325,S1200,0.02,19709,,3,"New Castle",Delaware,USGS,01483177,"Appoquinimink River @ New Castle County, DE","Appoquinimink River @ New Castle County, DE"
93,"Aquia Creek","Stafford County",VA,"United States",Southeast,"199 Onville Rd, ZIP: 22556",38.49040138,-77.43359420,199,"Onville Rd",38.49074,-77.43335,S1400,0.04,22556,,179,Stafford,Virginia,USGS,01660400,"Aquia Creek @ Stafford County, VA","Aquia Creek @ Stafford County, VA"
94,"Arkansas River","Bent County",CO,"United States",West,,38.06639635,-102.93242280,,,38.06598,-102.93244,S1400,0.05,,,11,Bent,Colorado,USGS,07130500,"Arkansas River @ Bent County, CO","Arkansas River @ Bent County, CO"
95,"Arkansas River","Buena Vista",CO,"United States",West,,38.84916220,-106.12473970,,,38.84877,-106.1251,S1400,0.05,,"Buena Vista",15,Chaffee,Colorado,USGS,07087200,"Arkansas River @ Buena Vista, CO","Arkansas River @ Buena Vista, CO"
96,"Arkansas River","Cañon City",CO,"United States",West," Riverside Ave, ZIP: 81212",38.43388674,-105.25721280,,"Riverside Ave",38.43359,-105.25716,S1400,0.03,81212,"Cañon City",43,Fremont,Colorado,USGS,07096000,"Arkansas River @ Cañon City, CO","Arkansas River @ Cañon City, CO"
97,"Arkansas River","Chaffee County",CO,"United States",West,"10000 Co Rd 194",38.65221880,-106.05112600,10000,"Co Rd 194",38.65172,-106.05136,S1400,0.06,,,15,Chaffee,Colorado,USGS,07091200,"Arkansas River @ Chaffee County, CO","Arkansas River @ Chaffee County, CO near 10000 Co Rd 194"
98,"Arkansas River","Chaffee County",CO,"United States",West,"43038 US Hwy 24",39.04277116,-106.26585530,43038,"US Hwy 24",39.04272,-106.26598,S1200,0.01,,,15,Chaffee,Colorado,USGS,07086000,"Arkansas River @ Chaffee County, CO","Arkansas River @ Chaffee County, CO near 43038 US Hwy 24"
99,"Arkansas River","Fremont County",CO,"United States",West,"3 State Hwy 120, ZIP: 81226",38.38833418,-105.01609610,3,"State Hwy 120",38.38826,-105.01607,S1200,0.01,81226,,43,Fremont,Colorado,USGS,07097000,"Arkansas River @ Fremont County, CO","Arkansas River @ Fremont County, CO near 3 State Hwy 120, ZIP: 81226"
100,"Arkansas River","Fremont County",CO,"United States",West,"41045 US Hwy 50, ZIP: 81212",38.48721890,-105.37360400,41045,"US Hwy 50",38.48646,-105.37323,S1200,0.09,81212,,43,Fremont,Colorado,USGS,07094500,"Arkansas River @ Fremont County, CO","Arkansas River @ Fremont County, CO near 41045 US Hwy 50, ZIP: 81212"
101,"Arkansas River","Hamilton County",KS,"United States",Midwest,"Rd B",38.02751290,-102.01157060,,"Rd B",38.02751,-102.01175,S1400,0.02,,,75,Hamilton,Kansas,USGS,07137500,"Arkansas River @ Hamilton County, KS","Arkansas River @ Hamilton County, KS"
102,"Arkansas River","Lake County",CO,"United States",West," Turquoise Lake Rd, ZIP: 80461",39.24900000,-106.34811110,,"Turquoise Lake Rd",39.24889,-106.34811,S1400,0.01,80461,,65,Lake,Colorado,USGS,07081200,"Arkansas River @ Lake County, CO","Arkansas River @ Lake County, CO"
103,"Arkansas River","Las Animas",CO,"United States",West,"194 Bent Ave N",38.08083990,-103.21965230,194,"Bent Ave N",38.08083,-103.2197,S1200,0,,"Las Animas",11,Bent,Colorado,USGS,07124000,"Arkansas River @ Las Animas, CO","Arkansas River @ Las Animas, CO"
104,"Arkansas River","Otero County",CO,"United States",West,"Ditch Rd",38.12583934,-103.91190060,,"Ditch Rd",38.12445,-103.91212,S1400,0.16,,,89,Otero,Colorado,USGS,07119700,"Arkansas River @ Otero County, CO","Arkansas River @ Otero County, CO near  Ditch Rd"
105,"Arkansas River","Otero County",CO,"United States",West,"21697 State Hwy 266, ZIP: 81067",38.06528559,-103.68605930,21697,"State Hwy 266",38.06428,-103.68547,S1200,0.12,81067,,89,Otero,Colorado,USGS,07120500,"Arkansas River @ Otero County, CO","Arkansas River @ Otero County, CO near 21697 State Hwy 266, ZIP: 81067"
106,"Arkansas River","Pueblo County",CO,"United States",West,"Nyberg Rd",38.24805799,-104.39913560,,"Nyberg Rd",38.24805,-104.3991,S1400,0,,,101,Pueblo,Colorado,USGS,07109500,"Arkansas River @ Pueblo County, CO","Arkansas River @ Pueblo County, CO near  Nyberg Rd"
107,"Arkansas River","Pueblo County",CO,"United States",West,"Pueblo Reservoir Rd",38.27166940,-104.71803300,,"Pueblo Reservoir Rd",38.2717,-104.71819,S1400,0.01,,,101,Pueblo,Colorado,USGS,07099400,"Arkansas River @ Pueblo County, CO","Arkansas River @ Pueblo County, CO near  Pueblo Reservoir Rd"
108,"Arkansas River",Pueblo,CO,"United States",West,"774 S Santa Fe Ave, ZIP: 81006, at Moffat St. ",38.25361396,-104.60608540,774,"S Santa Fe Ave",38.25365,-104.6065,S1200,0.04,81006,Pueblo,101,Pueblo,Colorado,USGS,07099969,"Arkansas River @ Pueblo, CO","Arkansas River @ Pueblo, CO near 774 S Santa Fe Ave, ZIP: 81006, at Moffat St. "
109,"Arkansas River",Pueblo,CO,"United States",West,"774 S Santa Fe Ave, ZIP: 81006, Charles Mesa Diver",38.25361396,-104.60608540,774,"S Santa Fe Ave",38.25365,-104.6065,S1200,0.04,81006,Pueblo,101,Pueblo,Colorado,USGS,07099969,"Arkansas River @ Pueblo, CO","Arkansas River @ Pueblo, CO near 774 S Santa Fe Ave, ZIP: 81006, Charles Mesa Diver"
110,"Arkansas River",Ralston,OK,"United States",Southwest,"100 S 8th St, ZIP: 74650",36.50421677,-96.72836720,100,"S 8th St",36.50391,-96.72835,S1400,0.03,74650,Ralston,117,Pawnee,Oklahoma,USGS,07152500,"Arkansas River @ Ralston, OK","Arkansas River @ Ralston, OK"
111,"Arkansas River",,N/A,,N/A,"Below Empire Gulch",39.16387980,-106.32002400,,,,,,,,,,,,USGS,07083710,"Arkansas River","Arkansas River near Below Empire Gulch"
112,"Arkansas River",,N/A,,N/A,"Kaw City, OK",36.76892498,-96.83475600,,,,,,,,,,,,USGS,07148128,"Arkansas River","Arkansas River near Kaw City, OK"
113,"Army Drain","Pershing County",NV,"United States",West,"Lake Rd",40.04241010,-118.55292580,,"Lake Rd",40.04266,-118.55174,S1400,0.1,,,27,Pershing,Nevada,USGS,10336039,"Army Drain @ Pershing County, NV","Army Drain @ Pershing County, NV"
114,"Arrowwood Lake",,N/A,,N/A,"Arrowwood Lake Open Water Site",47.27944090,-98.83510720,,,,,,,,,,,,USGS,06468360,"Arrowwood Lake","Arrowwood Lake near Arrowwood Lake Open Water Site"
115,"Arrowwood Lake",,N/A,,N/A,"Arrowwood Lake Outflow Site",47.26527420,-98.84816320,,,,,,,,,,,,USGS,06468380,"Arrowwood Lake","Arrowwood Lake near Arrowwood Lake Outflow Site"
116,"Arroyo Colorado","Rio Hondo",TX,"United States",Southwest,"Colorado Ave",26.23527778,-97.58472220,,"Colorado Ave",26.23556,-97.58469,S1400,0.03,,"Rio Hondo",61,Cameron,Texas,USGS,08470500,"Arroyo Colorado @ Rio Hondo, TX","Arroyo Colorado @ Rio Hondo, TX"
117,"Arroyo De","Alameda County",CA,"United States",West,"Verona Rd",37.62659915,-121.88301260,,"Verona Rd",37.62662,-121.88302,S1400,0,,,1,Alameda,California,USGS,11176900,"Arroyo De @ Alameda County, CA","Arroyo De @ Alameda County, CA"
118,"Arroyo De",Pleasanton,CA,"United States",West,"6999 Corte Monterey, ZIP: 94566",37.66270908,-121.90634660,6999,"Corte Monterey",37.66293,-121.90552,S1400,0.08,94566,Pleasanton,1,Alameda,California,USGS,11176350,"Arroyo De @ Pleasanton, CA","Arroyo De @ Pleasanton, CA"
119,"Arroyo De",Sunol,CA,"United States",West,"Foothill Rd",37.61521066,-121.88162360,,"Foothill Rd",37.61513,-121.88184,S1400,0.02,,Sunol,1,Alameda,California,USGS,11177000,"Arroyo De @ Sunol, CA","Arroyo De @ Sunol, CA"
120,"Arroyo Las","Alameda County",CA,"United States",West,"2652 el Charro Rd, ZIP: 94588",37.69687430,-121.84940030,2652,"el Charro Rd",37.69683,-121.84828,S1400,0.1,94588,,1,Alameda,California,USGS,11176180,"Arroyo Las @ Alameda County, CA","Arroyo Las @ Alameda County, CA"
121,"Arroyo Las",Livermore,CA,"United States",West,"1890 N Livermore Ave, ZIP: 94551",37.69992957,-121.77384240,1890,"N Livermore Ave",37.69993,-121.77383,S1400,0,94551,Livermore,1,Alameda,California,USGS,11176145,"Arroyo Las @ Livermore, CA","Arroyo Las @ Livermore, CA"
122,"Arroyo Mocho","Alameda County",CA,"United States",West,"7197 Mines Rd, ZIP: 94550",37.62632039,-121.70467340,7197,"Mines Rd",37.62631,-121.70426,S1400,0.04,94550,,1,Alameda,California,USGS,11176000,"Arroyo Mocho @ Alameda County, CA","Arroyo Mocho @ Alameda County, CA"
123,"Arroyo Mocho",Pleasanton,CA,"United States",West,"4154 Suffolk Way, ZIP: 94588",37.69048570,-121.87328990,4154,"Suffolk Way",37.6911,-121.87347,S1400,0.07,94588,Pleasanton,1,Alameda,California,USGS,11176200,"Arroyo Mocho @ Pleasanton, CA","Arroyo Mocho @ Pleasanton, CA"
124,"Arroyo Valle",Pleasanton,CA,"United States",West,"1200 Summer Ct, ZIP: 94566",37.66715326,-121.88273470,1200,"Summer Ct",37.66723,-121.88237,S1400,0.03,94566,Pleasanton,1,Alameda,California,USGS,11176600,"Arroyo Valle @ Pleasanton, CA","Arroyo Valle @ Pleasanton, CA"
125,"Ash Creek",Tigard,OR,"United States",West,"9790 SW Shady Ln, ZIP: 97223",45.44177370,-122.77654750,9790,"SW Shady Ln",45.44211,-122.77655,S1400,0.04,97223,Tigard,67,Washington,Oregon,USGS,452631122463101,"Ash Creek @ Tigard, OR","Ash Creek @ Tigard, OR"
126,"Ashley Creek",Naples,UT,"United States",West,"3248 E 1500 S, ZIP: 84078",40.43357206,-109.46624560,3248,"E 1500 S",40.43443,-109.46626,S1400,0.1,84078,Naples,47,Uintah,Utah,USGS,09271400,"Ashley Creek @ Naples, UT","Ashley Creek @ Naples, UT"
127,"Ashley Creek","Uintah County",UT,"United States",West,"5114 E 4000 S, ZIP: 84078",40.39801727,-109.42957740,5114,"E 4000 S",40.39824,-109.42958,S1400,0.02,84078,,47,Uintah,Utah,USGS,09271450,"Ashley Creek @ Uintah County, UT","Ashley Creek @ Uintah County, UT"
128,"Ashley Crk",,N/A,,N/A,,40.40657267,-109.43510540,,,,,,,,,,,,USGS,09271425,"Ashley Crk","Ashley Crk"
129,"Ashley River","Dorchester County",SC,"United States",Southeast,"Bacons Bridge Rd",32.95878299,-80.20092790,,"Bacons Bridge Rd",32.95879,-80.20095,S1200,0,,,35,Dorchester,"South Carolina",USGS,02172081,"Ashley River @ Dorchester County, SC","Ashley River @ Dorchester County, SC"
130,"Ashley River","Dorchester County",SC,"United States",Southeast,"1099 Bakers Landing Dr, ZIP: 29418",32.89350734,-80.10203610,1099,"Bakers Landing Dr",32.89414,-80.10162,S1400,0.08,29418,,35,Dorchester,"South Carolina",USGS,02172084,"Ashley River @ Dorchester County, SC","Ashley River @ Dorchester County, SC near 1099 Bakers Landing Dr, ZIP: 29418"
131,"Ashley River","Dorchester County",SC,"United States",Southeast,"198 Park Ln, ZIP: 29485",32.94878346,-80.16620440,198,"Park Ln",32.94874,-80.16722,S1400,0.09,29485,,35,Dorchester,"South Carolina",USGS,021720812,"Ashley River @ Dorchester County, SC","Ashley River @ Dorchester County, SC near 198 Park Ln, ZIP: 29485"
132,"Ashley River","Dorchester County",SC,"United States",Southeast,"2739 Boone Hill Rd",32.96850460,-80.25287450,2739,"Boone Hill Rd",32.96876,-80.25284,S1200,0.03,,,35,Dorchester,"South Carolina",USGS,02172080,"Ashley River @ Dorchester County, SC","Ashley River @ Dorchester County, SC near 2739 Boone Hill Rd"
133,"Ashley River","North Charleston",SC,"United States",Southeast,"I- 526",32.83462010,-80.02370140,,"I- 526",32.83527,-80.02441,S1100,0.1,,"North Charleston",19,Charleston,"South Carolina",USGS,021720869,"Ashley River @ North Charleston, SC","Ashley River @ North Charleston, SC"
134,"Au Sable","Iosco County",MI,"United States",Midwest,"Rea Rd",44.43640447,-83.43386090,,"Rea Rd",44.43624,-83.4338,S1400,0.02,,,69,Iosco,Michigan,USGS,04137500,"Au Sable @ Iosco County, MI","Au Sable @ Iosco County, MI"
135,"Aucilla River",,N/A,,N/A,,30.11234694,-83.97977280,,,,,,,,,,,,USGS,02326550,"Aucilla River","Aucilla River"
136,"Auglaize River","Defiance County",OH,"United States",Midwest,"14264 Power Dam Rd, ZIP: 43512",41.23754895,-84.39911370,14264,"Power Dam Rd",41.23672,-84.39889,S1400,0.09,43512,,39,Defiance,Ohio,USGS,04191500,"Auglaize River @ Defiance County, OH","Auglaize River @ Defiance County, OH"
137,"Auglaize River","Putnam County",OH,"United States",Midwest,"21193 US Rte 224, ZIP: 45844",40.94866170,-84.26605900,21193,"US Rte 224",40.94902,-84.26626,S1200,0.04,45844,,137,Putnam,Ohio,USGS,04186500,"Auglaize River @ Putnam County, OH","Auglaize River @ Putnam County, OH"
138,"Ay-68-21-903 (Tpc-Cibolo",,N/A,,N/A,,29.64875556,-98.39674170,,,,,,,,,,,,USGS,293855098234801,"Ay-68-21-903 (Tpc-Cibolo","Ay-68-21-903 (Tpc-Cibolo"
139,Ay-68-28-314,"San Antonio",TX,"United States",Southwest,"17176 Blanco Rd, ZIP: 78232",29.59305556,-98.51138890,17176,"Blanco Rd",29.59309,-98.51155,S1400,0.02,78232,"San Antonio",29,Bexar,Texas,USGS,293535098304101,"Ay-68-28-314  @ San Antonio, TX","Ay-68-28-314  @ San Antonio, TX"
140,Ay-68-30-801,Converse,TX,"United States",Southwest,"101 Gibbs Sprawl Rd, ZIP: 78109",29.51745250,-98.31473520,101,"Gibbs Sprawl Rd",29.51709,-98.31497,S1400,0.05,78109,Converse,29,Bexar,Texas,USGS,293102098185201,"Ay-68-30-801  @ Converse, TX","Ay-68-30-801  @ Converse, TX"
141,"Ay-68-37-711 (Mission","San Antonio",TX,"United States",Southwest,"133 Parkview Dr, ZIP: 78210",29.39194444,-98.49583330,133,"Parkview Dr",29.39128,-98.4954,S1400,0.09,78210,"San Antonio",29,Bexar,Texas,USGS,292331098294501,"Ay-68-37-711 (Mission @ San Antonio, TX","Ay-68-37-711 (Mission @ San Antonio, TX"
142,Ay-68-43-811,"Bexar County",TX,"United States",Southwest,"10861 Pearsall Rd, ZIP: 78002",29.28888889,-98.70638890,10861,"Pearsall Rd",29.28876,-98.70629,S1400,0.02,78002,,29,Bexar,Texas,USGS,291720098422301,"Ay-68-43-811  @ Bexar County, TX","Ay-68-43-811  @ Bexar County, TX"
143,"Bachman Run","Lebanon County",PA,"United States",Northeast,"590 T-429",40.31620280,-76.51580000,590,T-429,40.31636,-76.51579,S1400,0.02,,,75,Lebanon,Pennsylvania,USGS,01573095,"Bachman Run @ Lebanon County, PA","Bachman Run @ Lebanon County, PA"
144,"Back Bay",,N/A,,N/A,,36.61750000,-75.94194440,,,,,,,,,,,,USGS,02043016,"Back Bay","Back Bay"
145,"Back Bay",Biloxi,MS,"United States",Southeast,"Beach Blvd",30.40519859,-88.84613980,,"Beach Blvd",30.40525,-88.84619,S1200,0.01,,Biloxi,47,Harrison,Mississippi,USGS,02481300,"Back Bay @ Biloxi, MS","Back Bay @ Biloxi, MS near  Beach Blvd"
146,"Back Bay",Biloxi,MS,"United States",Southeast,"Popps Ferry Rd",30.41575340,-88.97586690,,"Popps Ferry Rd",30.4157,-88.97559,S1400,0.03,,Biloxi,47,Harrison,Mississippi,USGS,02481270,"Back Bay @ Biloxi, MS","Back Bay @ Biloxi, MS near  Popps Ferry Rd"
147,"Back Creek","Bath County",VA,"United States",Southeast,"State Rte 39",38.06956880,-79.89700030,,"State Rte 39",38.06953,-79.89705,S1200,0.01,,,17,Bath,Virginia,USGS,02011500,"Back Creek @ Bath County, VA","Back Creek @ Bath County, VA"
148,"Back River",,N/A,,N/A,"0.4 Miles Downstream US17",32.09777778,-81.08277780,,,,,,,,,,,,USGS,0219897945,"Back River","Back River near 0.4 Miles Downstream US17"
149,"Back River",,N/A,,N/A,"DuPont Intake",33.06378245,-79.95702700,,,,,,,,,,,,USGS,02172040,"Back River","Back River near DuPont Intake"
150,"Back River",,N/A,,N/A,"Fig Island",32.08826345,-81.05955630,,,,,,,,,,,,USGS,021989798,"Back River","Back River near Fig Island"
151,"Back River",,N/A,,N/A,"Hutchinson Island",32.09187419,-81.06844519,,,,,,,,,,,,USGS,021989797,"Back River","Back River near Hutchinson Island"
152,"Back River",,N/A,,N/A,Mouth,32.08576383,-81.04705620,,,,,,,,,,,,USGS,021989799,"Back River","Back River near Mouth"
153,"Bacons Run","Burlington County",NJ,"United States",Northeast,"402 White Pine Rd, ZIP: 8022",40.10750000,-74.68472220,402,"White Pine Rd",40.10756,-74.68473,S1400,0.01,8022,,5,Burlington,"New Jersey",USGS,01464529,"Bacons Run @ Burlington County, NJ","Bacons Run @ Burlington County, NJ"
154,"Bad River","Ashland County",WI,"United States",Midwest,"Elm Hoist Rd",46.48661440,-90.69629700,,"Elm Hoist Rd",46.48665,-90.69534,S1400,0.07,,,3,Ashland,Wisconsin,USGS,04027000,"Bad River @ Ashland County, WI","Bad River @ Ashland County, WI"
155,"Bad River",Odanah,WI,"United States",Midwest,"US Hwy 2",46.61022045,-90.68712850,,"US Hwy 2",46.6104,-90.68708,S1200,0.02,,Odanah,3,Ashland,Wisconsin,USGS,04027595,"Bad River @ Odanah, WI","Bad River @ Odanah, WI"
156,"Badger Mill","Dane County",WI,"United States",Midwest,"Verona Rd",42.99860860,-89.49873260,,"Verona Rd",42.99816,-89.49852,S1200,0.05,,,25,Dane,Wisconsin,USGS,05435935,"Badger Mill @ Dane County, WI","Badger Mill @ Dane County, WI"
157,"Badger Mill",Madison,WI,"United States",Midwest,"6498 Nesbitt Rd",43.00110855,-89.49901040,6498,"Nesbitt Rd",43.00133,-89.49869,S1400,0.04,,Madison,25,Dane,Wisconsin,USGS,05435934,"Badger Mill @ Madison, WI","Badger Mill @ Madison, WI"
158,"Badger Mill",Verona,WI,"United States",Midwest,"436 Bruce St, ZIP: 53593",42.97694444,-89.53944440,436,"Bruce St",42.97711,-89.53921,S1400,0.03,53593,Verona,25,Dane,Wisconsin,USGS,05435943,"Badger Mill @ Verona, WI","Badger Mill @ Verona, WI"
159,"Badger Wash",,N/A,,N/A,,39.32331210,-108.93066200,,,,,,,,,,,,USGS,09160500,"Badger Wash","Badger Wash"
160,"Badger Wash","Mesa County",CO,"United States",West,,39.32942310,-108.94316250,,,39.32981,-108.94296,S1400,0.05,,,77,Mesa,Colorado,USGS,09161000,"Badger Wash @ Mesa County, CO","Badger Wash @ Mesa County, CO"
161,"Badger Wash","Mesa County",CO,"United States",West,"5 & 1/2 Rd",39.29331267,-108.93371800,,"5 & 1/2 Rd",39.29359,-108.93342,S1400,0.04,,,77,Mesa,Colorado,USGS,09163050,"Badger Wash @ Mesa County, CO","Badger Wash @ Mesa County, CO near  5 & 1/2 Rd"
162,"Baird Creek","Green Bay",WI,"United States",Midwest,"140 Superior Rd, ZIP: 54311",44.50110420,-87.93621210,140,"Superior Rd",44.50108,-87.93612,S1400,0.01,54311,"Green Bay",9,Brown,Wisconsin,USGS,040851325,"Baird Creek @ Green Bay, WI","Baird Creek @ Green Bay, WI"
163,"Baldhill Creek","Barnes County",ND,"United States",Midwest,"11232 13th St SE, ZIP: 58429",47.22915620,-98.12481890,11232,"13th St SE",47.22834,-98.12454,S1500,0.09,58429,,3,Barnes,"North Dakota",USGS,05057200,"Baldhill Creek @ Barnes County, ND","Baldhill Creek @ Barnes County, ND"
164,"Ball Bay",,N/A,,N/A,BAY,42.40847105,-122.01807170,,,,,,,,,,,,USGS,422431122010100,"Ball Bay","Ball Bay"
165,"Banister River","Halifax County",VA,"United States",Southeast,"Bethel Rd",36.77652670,-78.91584380,,"Bethel Rd",36.77653,-78.91585,S1200,0,,,83,Halifax,Virginia,USGS,02077000,"Banister River @ Halifax County, VA","Banister River @ Halifax County, VA"
166,"Banklick Creek",Erlanger,KY,"United States",Southeast,"Richardson Rd",38.98055556,-84.54166670,,"Richardson Rd",38.98049,-84.54166,S1400,0.01,,Erlanger,117,Kenton,Kentucky,USGS,03254550,"Banklick Creek @ Erlanger, KY","Banklick Creek @ Erlanger, KY"
167,"Banos De","Coamo County",PR,"US (Puerto Rico)",N/A,,18.03663013,-66.37322508,,,18.03682,-66.37383,S1400,0.07,,,43,Coamo,"Puerto Rico",USGS,180219066222500,"Banos De @ Coamo County, PR","Banos De @ Coamo County, PR"
168,"Baptism Creek",,N/A,,N/A,,40.20172220,-75.76705560,,,,,,,,,,,,USGS,014721259,"Baptism Creek","Baptism Creek"
169,"Baptism River","Lake County",MN,"United States",Midwest,"State Hwy 61",47.33741728,-91.20071890,,"State Hwy 61",47.33724,-91.20062,S1200,0.02,,,75,Lake,Minnesota,USGS,04014500,"Baptism River @ Lake County, MN","Baptism River @ Lake County, MN"
170,"Barataria Bay",,N/A,,N/A,,29.42272045,-89.95062680,,,,,,,,,,,,USGS,07380251,"Barataria Bay","Barataria Bay"
171,"Barataria Bay, Gran Terre Island ",,N/A,,N/A,,29.32472220,-89.94050000,,,,,,,,,,,,USGS,291929089562600,"Barataria Bay, Gran Terre Island ","Barataria Bay, Gran Terre Island "
172,"Barataria Pass",,N/A,,N/A,,29.27283333,-89.94680560,,,,,,,,,,,,USGS,073802516,"Barataria Pass","Barataria Pass"
173,"Barataria Waterway",,N/A,,N/A,,29.48305556,-90.01111110,,,,,,,,,,,,USGS,292859090004000,"Barataria Waterway","Barataria Waterway"
174,"Barnegat Bay",Mantoloking,NJ,"United States",Northeast,"Herbert St",40.04055556,-74.05472220,,"Herbert St",40.04026,-74.05475,S1400,0.03,,Mantoloking,29,Ocean,"New Jersey",USGS,01408167,"Barnegat Bay @ Mantoloking, NJ","Barnegat Bay @ Mantoloking, NJ"
175,"Barons Creek","Gillespie County",TX,"United States",Southwest,"436 Danz Ln, ZIP: 78624",30.23467220,-98.84113890,436,"Danz Ln",30.23413,-98.84019,S1400,0.11,78624,,171,Gillespie,Texas,USGS,08152940,"Barons Creek @ Gillespie County, TX","Barons Creek @ Gillespie County, TX"
176,"Barton Fork","Buchanan County",VA,"United States",Southeast,"State Rte 620",37.07705460,-82.03901810,,"State Rte 620",37.07739,-82.03967,S1400,0.07,,,27,Buchanan,Virginia,USGS,03208036,"Barton Fork @ Buchanan County, VA","Barton Fork @ Buchanan County, VA"
177,"Barton Spgs",Austin,TX,"United States",Southwest,"William Barton Dr",30.26354169,-97.77139470,,"William Barton Dr",30.26441,-97.77151,S1400,0.1,,Austin,453,Travis,Texas,USGS,08155500,"Barton Spgs @ Austin, TX","Barton Spgs @ Austin, TX"
178,"Battery Creek","Port Royal",SC,"United States",Southeast,"Ribaut Rd",32.37714010,-80.71455140,,"Ribaut Rd",32.37722,-80.7146,S1200,0.01,,"Port Royal",13,Beaufort,"South Carolina",USGS,02176635,"Battery Creek @ Port Royal, SC","Battery Creek @ Port Royal, SC"
179,"Batupan Bogue",Grenada,MS,"United States",Southeast,"Hwy 8 E",33.77400485,-89.78758590,,"Hwy 8 E",33.77405,-89.78762,S1200,0.01,,Grenada,43,Grenada,Mississippi,USGS,07285400,"Batupan Bogue @ Grenada, MS","Batupan Bogue @ Grenada, MS"
180,"Bayou Boeuf",Amelia,LA,"United States",Southeast,"898 Lillian Ln, ZIP: 70380",29.66833333,-91.09972220,898,"Lillian Ln",29.66725,-91.10038,S1400,0.14,70380,Amelia,101,"St. Mary",Louisiana,USGS,073814675,"Bayou Boeuf @ Amelia, LA","Bayou Boeuf @ Amelia, LA"
181,"Bayou Grand",Dulac,LA,"United States",Southeast,"71999 Shrimpers Row, ZIP: 70353",29.38299869,-90.71536740,71999,"Shrimpers Row",29.38309,-90.71593,S1400,0.06,70353,Dulac,109,Terrebonne,Louisiana,USGS,07381324,"Bayou Grand @ Dulac, LA","Bayou Grand @ Dulac, LA"
182,"Bayou Lafourche","Lafourche County",LA,"United States",Southeast,"100 E Barataria St",29.64705556,-90.53677780,100,"E Barataria St",29.64732,-90.53688,S1400,0.03,,,57,Lafourche,Louisiana,USGS,07381150,"Bayou Lafourche @ Lafourche County, LA","Bayou Lafourche @ Lafourche County, LA"
183,"Bayou Perot",,N/A,,N/A,,29.56577778,-90.16555560,,,,,,,,,,,,USGS,07380330,"Bayou Perot","Bayou Perot"
184,"Bayou Portage",,N/A,,N/A,,30.33166667,-89.30472220,,,,,,,,,,,,USGS,301954089181700,"Bayou Portage","Bayou Portage"
185,"Bay-Waveland Yacht","Bay St. Louis",MS,"United States",Southeast,,30.32583333,-89.32527780,,,30.325,-89.32595,S1400,0.11,,"Bay St. Louis",45,Hancock,Mississippi,USGS,301932089193120,"Bay-Waveland Yacht @ Bay St. Louis, MS","Bay-Waveland Yacht @ Bay St. Louis, MS"
186,"Beals Creek","Howard County",TX,"United States",Southwest,"S Moss Lake Rd",32.24900970,-101.36206660,,"S Moss Lake Rd",32.2489,-101.3624,S1400,0.03,,,227,Howard,Texas,USGS,08123720,"Beals Creek @ Howard County, TX","Beals Creek @ Howard County, TX"
187,"Beals Creek","Mitchell County",TX,"United States",Southwest,"State Hwy 163",32.19929130,-101.01400290,,"State Hwy 163",32.1993,-101.01408,S1200,0.01,,,335,Mitchell,Texas,USGS,08123800,"Beals Creek @ Mitchell County, TX","Beals Creek @ Mitchell County, TX"
188,"Bear Brook","Warren County",NJ,"United States",Northeast,"1174 Dark Moon Rd, ZIP: 7860",40.97500000,-74.84888889,1174,"Dark Moon Rd",40.97525,-74.84892,S1400,0.03,7860,,41,Warren,"New Jersey",USGS,01445160,"Bear Brook @ Warren County, NJ","Bear Brook @ Warren County, NJ"
189,"Bear Creek","Searcy County",AR,"United States",Southeast,"US Hwy 65",35.94000000,-92.71333330,,"US Hwy 65",35.94012,-92.71322,S1200,0.02,,,129,Searcy,Arkansas,USGS,07056515,"Bear Creek @ Searcy County, AR","Bear Creek @ Searcy County, AR"
190,"Bear Den","McKenzie County",ND,"United States",Midwest,,47.78723690,-102.76852560,,,47.78774,-102.76775,S1400,0.08,,,53,McKenzie,"North Dakota",USGS,06332515,"Bear Den @ McKenzie County, ND","Bear Den @ McKenzie County, ND"
191,"Bear Lake","Bear Lake County",ID,"United States",West,,42.21659490,-111.34381590,,,42.2164,-111.34423,S1400,0.04,,,7,"Bear Lake",Idaho,USGS,10059500,"Bear Lake @ Bear Lake County, ID","Bear Lake @ Bear Lake County, ID"
192,"Bear River",,N/A,,N/A,,41.57632130,-112.10078200,,,,,,,,,,,,USGS,10126000,"Bear River","Bear River"
193,"Bear River","Bear Lake County",ID,"United States",West,"163 Border Rd, ZIP: 83254",42.21104338,-111.05380220,163,"Border Rd",42.21135,-111.05343,S1400,0.05,83254,,7,"Bear Lake",Idaho,USGS,10039500,"Bear River @ Bear Lake County, ID","Bear River @ Bear Lake County, ID"
194,"Bear Tree","Providence County",RI,"United States",Northeast,"2 Rockland Cemetery Rd, ZIP: 2815",41.78259940,-71.67478879,2,"Rockland Cemetery Rd",41.78275,-71.67515,S1400,0.03,2815,,7,Providence,"Rhode Island",USGS,01115275,"Bear Tree @ Providence County, RI","Bear Tree @ Providence County, RI"
195,"Bearhole Fork","Wyoming County",WV,"United States",Southeast,"1 Shawnee Rd, ZIP: 24874",37.58789077,-81.51982730,1,"Shawnee Rd",37.58788,-81.51977,S1400,0.01,24874,,109,Wyoming,"West Virginia",USGS,03202310,"Bearhole Fork @ Wyoming County, WV","Bearhole Fork @ Wyoming County, WV"
196,"Beaty Creek","Delaware County",OK,"United States",Southwest,"Cr 456",36.35535924,-94.77633880,,"Cr 456",36.35544,-94.77632,S1400,0.01,,,41,Delaware,Oklahoma,USGS,07191222,"Beaty Creek @ Delaware County, OK","Beaty Creek @ Delaware County, OK"
197,"Beaufort River",,N/A,,N/A,,32.45408014,-80.68177280,,,,,,,,,,,,USGS,02176589,"Beaufort River","Beaufort River"
198,"Beaufort River",Beaufort,SC,"United States",Southeast,"Ladys Island Dr",32.39463887,-80.67538450,,"Ladys Island Dr",32.39393,-80.67545,S1200,0.08,,Beaufort,13,Beaufort,"South Carolina",USGS,02176611,"Beaufort River @ Beaufort, SC","Beaufort River @ Beaufort, SC near  Ladys Island Dr"
199,"Beaufort River",Beaufort,SC,"United States",Southeast,"2 Sea Island Pkwy, ZIP: 29907",32.42741485,-80.66927300,2,"Sea Island Pkwy",32.42769,-80.66916,S1200,0.03,29907,Beaufort,13,Beaufort,"South Carolina",USGS,02176603,"Beaufort River @ Beaufort, SC","Beaufort River @ Beaufort, SC near 2 Sea Island Pkwy, ZIP: 29907"
200,"Beaufort River","Port Royal",SC,"United States",Southeast,"153 Nicaragua St, ZIP: 29902",32.35019676,-80.66899600,153,"Nicaragua St",32.3497,-80.66972,S1400,0.09,29902,"Port Royal",13,Beaufort,"South Carolina",USGS,02176640,"Beaufort River @ Port Royal, SC","Beaufort River @ Port Royal, SC"
201,"Beaver Creek","Lincoln County",OR,"United States",West," Oregon Coast Hwy, ZIP: 97376",44.52055556,-124.07000000,,"Oregon Coast Hwy",44.52065,-124.07017,S1200,0.02,97376,,41,Lincoln,Oregon,USGS,14306085,"Beaver Creek @ Lincoln County, OR","Beaver Creek @ Lincoln County, OR near  Oregon Coast Hwy, ZIP: 97376"
202,"Beaver Creek","Lincoln County",OR,"United States",West,"935 S Beaver Creek Rd, ZIP: 97376",44.51027778,-124.05194440,935,"S Beaver Creek Rd",44.51023,-124.05205,S1400,0.01,97376,,41,Lincoln,Oregon,USGS,14306080,"Beaver Creek @ Lincoln County, OR","Beaver Creek @ Lincoln County, OR near 935 S Beaver Creek Rd, ZIP: 97376"
203,"Beaver Creek","Ottawa County",OK,"United States",Southwest,"5792 S 630 Rd, ZIP: 74363",36.93250000,-94.75055560,5792,"S 630 Rd",36.93271,-94.7508,S1400,0.03,74363,,115,Ottawa,Oklahoma,USGS,07188007,"Beaver Creek @ Ottawa County, OK","Beaver Creek @ Ottawa County, OK"
204,"Beaver Creek","Wichita County",TX,"United States",Southwest,"14311 FM 2326, ZIP: 76360",33.90592785,-98.90506660,14311,"FM 2326",33.90639,-98.9049,S1400,0.05,76360,,485,Wichita,Texas,USGS,07312200,"Beaver Creek @ Wichita County, TX","Beaver Creek @ Wichita County, TX"
205,"Beaver River","Beaver County",UT,"United States",West,"State Rte 21",38.25358104,-112.76633400,,"State Rte 21",38.25371,-112.76642,S1200,0.02,,,1,Beaver,Utah,USGS,10237000,"Beaver River @ Beaver County, UT","Beaver River @ Beaver County, UT"
206,"Beaver River",Wampum,PA,"United States",Northeast,"Wampum Rd",40.88867389,-80.33700830,,"Wampum Rd",40.88879,-80.33705,S1200,0.01,,Wampum,73,Lawrence,Pennsylvania,USGS,03105500,"Beaver River @ Wampum, PA","Beaver River @ Wampum, PA"
207,"Beaverton Creek",Beaverton,OR,"United States",West," SW 170th Ave, ZIP: 97006",45.50095050,-122.85204500,,"SW 170th Ave",45.50095,-122.85199,S1400,0,97006,Beaverton,67,Washington,Oregon,USGS,453004122510301,"Beaverton Creek @ Beaverton, OR","Beaverton Creek @ Beaverton, OR"
208,"Bee Lake","Holmes County",MS,"United States",Southeast,"Ash Rd",33.06651657,-90.32814390,,"Ash Rd",33.06644,-90.32815,S1400,0.01,,,51,Holmes,Mississippi,USGS,330359090194135,"Bee Lake @ Holmes County, MS","Bee Lake @ Holmes County, MS"
209,"Beech Ceek","Tyler County",TX,"United States",Southwest,"Co Rd 4375",30.70944444,-94.19916670,,"Co Rd 4375",30.70919,-94.19914,S1400,0.03,,,457,Tyler,Texas,USGS,08041365,"Beech Ceek @ Tyler County, TX","Beech Ceek @ Tyler County, TX near  Co Rd 4375"
210,"Beech Ceek","Tyler County",TX,"United States",Southwest,"FM 1013 Rd",30.69444444,-94.19027780,,"FM 1013 Rd",30.69447,-94.19028,S1400,0,,,457,Tyler,Texas,USGS,08041375,"Beech Ceek @ Tyler County, TX","Beech Ceek @ Tyler County, TX near  FM 1013 Rd"
211,"Beech Creek",Monument,PA,"United States",Northeast,T913,41.11173070,-77.70221590,,T913,41.11089,-77.70305,S1400,0.12,,Monument,27,Centre,Pennsylvania,USGS,01547950,"Beech Creek @ Monument, PA","Beech Creek @ Monument, PA"
212,"Belle Fourche","Crook County",WY,"United States",West,"Hwy 110",44.58942820,-104.70385450,,"Hwy 110",44.5896,-104.70394,S1400,0.02,,,11,Crook,Wyoming,USGS,06427850,"Belle Fourche @ Crook County, WY","Belle Fourche @ Crook County, WY"
213,"Belle River","St. Clair County",MI,"United States",Midwest,"4644 King Rd, ZIP: 48054",42.76836606,-82.51213480,4644,"King Rd",42.76837,-82.51211,S1400,0,48054,,147,"St. Clair",Michigan,USGS,04160625,"Belle River @ St. Clair County, MI","Belle River @ St. Clair County, MI"
214,"Bent Canyon",,N/A,,N/A,,37.58918109,-103.64828150,,,,,,,,,,,,USGS,07126480,"Bent Canyon","Bent Canyon"
215,"Berthold Wetland","Ward County",ND,"United States",Midwest,"BERTHOLD WETLAND 10",48.22029020,-101.88960890,,,48.21914,-101.89157,S1400,0.19,,,101,Ward,"North Dakota",USGS,481313101532100,"Berthold Wetland @ Ward County, ND","Berthold Wetland @ Ward County, ND near BERTHOLD WETLAND 10"
216,"Berthold Wetland","Ward County",ND,"United States",Midwest,"BERTHOLD WETLAND 4",48.21417907,-101.88544230,,,48.2135,-101.88572,S1400,0.08,,,101,Ward,"North Dakota",USGS,481251101530600,"Berthold Wetland @ Ward County, ND","Berthold Wetland @ Ward County, ND near BERTHOLD WETLAND 4"
217,"Berthold Wetland","Ward County",ND,"United States",Midwest,"BERTHOLD WETLAND 5",48.21306798,-101.88960900,,,48.21381,-101.8905,S1400,0.11,,,101,Ward,"North Dakota",USGS,481247101532100,"Berthold Wetland @ Ward County, ND","Berthold Wetland @ Ward County, ND near BERTHOLD WETLAND 5"
218,"Berthold Wetland","Ward County",ND,"United States",Midwest,"BERTHOLD WETLAND 6",48.20917919,-101.90627580,,,48.21055,-101.90626,S1400,0.15,,,101,Ward,"North Dakota",USGS,481233101542100,"Berthold Wetland @ Ward County, ND","Berthold Wetland @ Ward County, ND near BERTHOLD WETLAND 6"
219,"Berthold Wetland","Ward County",ND,"United States",Midwest,"BERTHOLD WETLAND 7",48.20945700,-101.91044250,,,48.21021,-101.91083,S1400,0.09,,,101,Ward,"North Dakota",USGS,481234101543600,"Berthold Wetland @ Ward County, ND","Berthold Wetland @ Ward County, ND near BERTHOLD WETLAND 7"
220,"Berthold Wetland","Ward County",ND,"United States",Midwest,"BERTHOLD WETLAND 8",48.21001257,-101.91349800,,,48.20912,-101.91331,S1400,0.1,,,101,Ward,"North Dakota",USGS,481236101544700,"Berthold Wetland @ Ward County, ND","Berthold Wetland @ Ward County, ND near BERTHOLD WETLAND 8"
221,"Berthold Wetland",,N/A,,N/A,"BERTHOLD WETLAND 1",48.20223460,-101.88849800,,,,,,,,,,,,USGS,481208101531700,"Berthold Wetland","Berthold Wetland near BERTHOLD WETLAND 1"
222,"Berthold Wetland",,N/A,,N/A,"BERTHOLD WETLAND 2",48.19779010,-101.88210910,,,,,,,,,,,,USGS,481152101525400,"Berthold Wetland","Berthold Wetland near BERTHOLD WETLAND 2"
223,"Berthold Wetland",,N/A,,N/A,"BERTHOLD WETLAND 3",48.21390126,-101.88044230,,,,,,,,,,,,USGS,481250101524800,"Berthold Wetland","Berthold Wetland near BERTHOLD WETLAND 3"
224,"Berthold Wetland",,N/A,,N/A,"BERTHOLD WETLAND 9",48.21001260,-101.92072030,,,,,,,,,,,,USGS,481236101551300,"Berthold Wetland","Berthold Wetland near BERTHOLD WETLAND 9"
225,"Bessemer Ditch","Pueblo County",CO,"United States",West,"26519 Manning Rd, ZIP: 81006",38.22011110,-104.53597220,26519,"Manning Rd",38.21986,-104.53597,S1400,0.03,81006,,101,Pueblo,Colorado,USGS,381312104321001,"Bessemer Ditch @ Pueblo County, CO","Bessemer Ditch @ Pueblo County, CO"
226,Bft-1810,"Hilton Head Island",SC,"United States",Southeast,"79 Dolphin Head Ln, ZIP: 29926",32.26770186,-80.72260780,79,"Dolphin Head Ln",32.26707,-80.72162,S1400,0.12,29926,"Hilton Head Island",13,Beaufort,"South Carolina",USGS,321603080432202,"Bft-1810  @ Hilton Head Island, SC","Bft-1810  @ Hilton Head Island, SC"
227,"Big Arroyo","Las Animas County",CO,"United States",West,"Pipeline Rd",37.55483330,-104.02122220,,"Pipeline Rd",37.55489,-104.0211,S1400,0.01,,,71,"Las Animas",Colorado,USGS,07120620,"Big Arroyo @ Las Animas County, CO","Big Arroyo @ Las Animas County, CO"
228,"Big Black","Hinds County",MS,"United States",Southeast,"22298 Old Hwy 80, ZIP: 39066",32.34777778,-90.69694440,22298,"Old Hwy 80",32.34755,-90.69681,S1400,0.03,39066,,49,Hinds,Mississippi,USGS,07290000,"Big Black @ Hinds County, MS","Big Black @ Hinds County, MS"
229,"Big Blue","Riley County",KS,"United States",Midwest,"Barnes Rd",39.23721860,-96.57139180,,"Barnes Rd",39.23725,-96.57125,S1400,0.01,,,161,Riley,Kansas,USGS,06887000,"Big Blue @ Riley County, KS","Big Blue @ Riley County, KS"
230,"Big Bull","Johnson County",KS,"United States",Midwest,"I- 35",38.75334168,-94.97718800,,"I- 35",38.75316,-94.97711,S1100,0.02,,,91,Johnson,Kansas,USGS,06914950,"Big Bull @ Johnson County, KS","Big Bull @ Johnson County, KS"
231,"Big Bull","Miami County",KS,"United States",Midwest,,38.65639990,-94.89635210,,,38.65633,-94.89734,S1400,0.09,,,121,Miami,Kansas,USGS,06915000,"Big Bull @ Miami County, KS","Big Bull @ Miami County, KS"
232,"Big Coal","Kanawha County",WV,"United States",Southeast,"428 Emmons Rd, ZIP: 25003",38.25009690,-81.79818130,428,"Emmons Rd",38.24924,-81.79712,S1400,0.13,25003,,39,Kanawha,"West Virginia",USGS,03198550,"Big Coal @ Kanawha County, WV","Big Coal @ Kanawha County, WV"
233,"Big Coulee","Benson County",ND,"United States",Midwest,"US Hwy 281",48.17777620,-99.22124550,,"US Hwy 281",48.17778,-99.2217,S1200,0.03,,,5,Benson,"North Dakota",USGS,05056400,"Big Coulee @ Benson County, ND","Big Coulee @ Benson County, ND"
234,"Big Creek","Shoshone County",ID,"United States",West,"Big Creek Rd",47.30575340,-116.11738220,,"Big Creek Rd",47.30574,-116.11694,S1400,0.03,,,79,Shoshone,Idaho,USGS,12414350,"Big Creek @ Shoshone County, ID","Big Creek @ Shoshone County, ID"
235,"Big Cypress","Harrison County",TX,"United States",Southwest,"State Hwy 43",32.69638889,-94.18777780,,"State Hwy 43",32.69638,-94.18782,S1200,0,,,203,Harrison,Texas,USGS,07346085,"Big Cypress @ Harrison County, TX","Big Cypress @ Harrison County, TX"
236,"Big Cypress","Titus County",TX,"United States",Southwest,"State Hwy 11",33.02095787,-94.88215540,,"State Hwy 11",33.02096,-94.88216,S1200,0,,,449,Titus,Texas,USGS,07344500,"Big Cypress @ Titus County, TX","Big Cypress @ Titus County, TX"
237,"Big Fork","Koochiching County",MN,"United States",Midwest,"593 Big Fork Rd, ZIP: 56627",48.19578490,-93.80712450,593,"Big Fork Rd",48.19578,-93.8068,S1400,0.02,56627,,71,Koochiching,Minnesota,USGS,05132000,"Big Fork @ Koochiching County, MN","Big Fork @ Koochiching County, MN near 593 Big Fork Rd, ZIP: 56627"
238,"Big Fork","Koochiching County",MN,"United States",Midwest,"7798 Sturgeon River Landing Rd, ZIP: 56627",48.21166667,-93.88222220,7798,"Sturgeon River Landing Rd",48.21177,-93.88387,S1400,0.12,56627,,71,Koochiching,Minnesota,USGS,05132010,"Big Fork @ Koochiching County, MN","Big Fork @ Koochiching County, MN near 7798 Sturgeon River Landing Rd, ZIP: 56627"
239,"Big Gypsum","San Miguel County",CO,"United States",West,"20R Rd",38.11360266,-108.85871340,,"20R Rd",38.11342,-108.85977,S1400,0.09,,,113,"San Miguel",Colorado,USGS,09168800,"Big Gypsum @ San Miguel County, CO","Big Gypsum @ San Miguel County, CO"
240,"Big Haynes","Gwinnett County",GA,"United States",Southeast,"2706 Lenora Rd, ZIP: 30052",33.81510730,-83.99018809,2706,"Lenora Rd",33.81535,-83.99014,S1400,0.03,30052,,135,Gwinnett,Georgia,USGS,02207385,"Big Haynes @ Gwinnett County, GA","Big Haynes @ Gwinnett County, GA"
241,"Big Otter","Bedford County",VA,"United States",Southeast,"1000 Roaring Run Rd, ZIP: 24556",37.36403026,-79.41919689,1000,"Roaring Run Rd",37.36483,-79.41882,S1400,0.09,24556,,19,Bedford,Virginia,USGS,02061000,"Big Otter @ Bedford County, VA","Big Otter @ Bedford County, VA"
242,"Big Otter","Campbell County",VA,"United States",Southeast,"Leesville Rd",37.20847738,-79.30363570,,"Leesville Rd",37.20821,-79.30351,S1400,0.03,,,31,Campbell,Virginia,USGS,02061500,"Big Otter @ Campbell County, VA","Big Otter @ Campbell County, VA"
243,"Big Papillion",Omaha,NE,"United States",Midwest,"6756 Q St, ZIP: 68117",41.20541556,-96.01668260,6756,"Q St",41.20525,-96.01668,S1400,0.02,68117,Omaha,55,Douglas,Nebraska,USGS,06610770,"Big Papillion @ Omaha, NE","Big Papillion @ Omaha, NE"
244,"Big Salt",Fruita,CO,"United States",West,"1598 River Rd, ZIP: 81521",39.16359180,-108.75093340,1598,"River Rd",39.16343,-108.75102,S1400,0.02,81521,Fruita,77,Mesa,Colorado,USGS,09153270,"Big Salt @ Fruita, CO","Big Salt @ Fruita, CO"
245,"Big Sandy",,N/A,,N/A,,32.64845613,-99.00451460,,,,,,,,,,,,USGS,08086290,"Big Sandy","Big Sandy"
246,"Big Sandy","Sweetwater County",WY,"United States",West,"Blue Rim Rd",41.94745505,-109.68819390,,"Blue Rim Rd",41.94734,-109.68784,S1400,0.03,,,37,Sweetwater,Wyoming,USGS,09216050,"Big Sandy @ Sweetwater County, WY","Big Sandy @ Sweetwater County, WY"
247,"Big Sioux","Minnehaha County",SD,"United States",Midwest,"47325 248th St, ZIP: 57022",43.79044595,-96.74566230,47325,"248th St",43.7905,-96.7455,S1400,0.01,57022,,99,Minnehaha,"South Dakota",USGS,06481000,"Big Sioux @ Minnehaha County, SD","Big Sioux @ Minnehaha County, SD"
248,"Big Sioux","Moody County",SD,"United States",Midwest,"22100 473rd Ave",44.18024730,-96.74949600,22100,"473rd Ave",44.18025,-96.74962,S1400,0.01,,,101,Moody,"South Dakota",USGS,06480000,"Big Sioux @ Moody County, SD","Big Sioux @ Moody County, SD"
249,"Big Sioux","Sioux Falls",SD,"United States",Midwest,"1974 N Cliff Ave, ZIP: 57103",43.56700265,-96.71132740,1974,"N Cliff Ave",43.56689,-96.71144,S1400,0.02,57103,"Sioux Falls",99,Minnehaha,"South Dakota",USGS,06482020,"Big Sioux @ Sioux Falls, SD","Big Sioux @ Sioux Falls, SD"
250,"Big Spring","Clayton County",IA,"United States",Midwest,,42.90915055,-91.46708550,,,42.90953,-91.46831,S1400,0.11,,,43,Clayton,Iowa,USGS,05411950,"Big Spring @ Clayton County, IA","Big Spring @ Clayton County, IA"
251,"Big Sulphur","Sonoma County",CA,"United States",West,"Dillingham Rd",38.76351754,-122.74638000,,"Dillingham Rd",38.76469,-122.74649,S1400,0.13,,,97,Sonoma,California,USGS,11463160,"Big Sulphur @ Sonoma County, CA","Big Sulphur @ Sonoma County, CA"
252,"Big Thompson","Larimer County",CO,"United States",West,"Moraine Park Rd",40.35387290,-105.58416790,,"Moraine Park Rd",40.35379,-105.58407,S1400,0.01,,,69,Larimer,Colorado,USGS,402114105350101,"Big Thompson @ Larimer County, CO","Big Thompson @ Larimer County, CO"
253,"Big Walnut","Putnam County",IN,"United States",Midwest,"10595 N Co Rd 550 E, ZIP: 46172",39.81615670,-86.75334000,10595,"N Co Rd 550 E",39.81585,-86.75372,S1400,0.05,46172,,133,Putnam,Indiana,USGS,03357330,"Big Walnut @ Putnam County, IN","Big Walnut @ Putnam County, IN"
254,"Big Walnut",Sunbury,OH,"United States",Midwest,"11899 E Granville St, ZIP: 43074",40.23617350,-82.85128920,11899,"E Granville St",40.23589,-82.85162,S1200,0.04,43074,Sunbury,41,Delaware,Ohio,USGS,03228300,"Big Walnut @ Sunbury, OH","Big Walnut @ Sunbury, OH"
255,"Bills Branch","Scott County",TN,"United States",Southeast,,36.21100366,-84.40515090,,,36.21099,-84.40517,S1400,0,,,151,Scott,Tennessee,USGS,03407875,"Bills Branch @ Scott County, TN","Bills Branch @ Scott County, TN"
256,"Biloxi Bay",,N/A,,N/A,,30.38833333,-88.85722220,,,,,,,,,,,,USGS,302318088512600,"Biloxi Bay","Biloxi Bay"
257,"Birch Creek",,N/A,,N/A,,65.39211570,-145.71495590,,,,,,,,,,,,USGS,15392000,"Birch Creek","Birch Creek"
258,"Bird Creek",Owasso,OK,"United States",Southwest,"6599 E 66th St N, ZIP: 74055",36.24870534,-95.86721300,6599,"E 66th St N",36.2491,-95.86704,S1400,0.05,74055,Owasso,143,Tulsa,Oklahoma,USGS,07178000,"Bird Creek @ Owasso, OK","Bird Creek @ Owasso, OK"
259,"Bird Creek",Tulsa,OK,"United States",Southwest,"14104 E 46th St N",36.22315140,-95.81943220,14104,"E 46th St N",36.22325,-95.81946,S1200,0.01,,Tulsa,143,Tulsa,Oklahoma,USGS,07178200,"Bird Creek @ Tulsa, OK","Bird Creek @ Tulsa, OK"
260,"Birnie Slough",,N/A,,N/A,RIVER,46.16083330,-123.33783330,,,,,,,,,,,,USGS,460939123201600,"Birnie Slough","Birnie Slough"
261,"Bitter Creek","Uintah County",UT,"United States",West,,39.96552120,-109.41707070,,,39.96551,-109.4178,S1400,0.06,,,47,Uintah,Utah,USGS,09306850,"Bitter Creek @ Uintah County, UT","Bitter Creek @ Uintah County, UT"
262,"Black Bay Snake Island",,N/A,,N/A,,29.63354395,-89.56366940,,,,,,,,,,,,USGS,07374526,"Black Bay Snake Island","Black Bay Snake Island"
263,"Black Butte","Mendocino County",CA,"United States",West,"Etsel Ridge Rd",39.82071008,-123.08167550,,"Etsel Ridge Rd",39.82043,-123.08185,S1400,0.03,,,45,Mendocino,California,USGS,11472900,"Black Butte @ Mendocino County, CA","Black Butte @ Mendocino County, CA"
264,"Black Creek",Goulds,FL,"United States",Southeast,"21200 SW 115th Rd, ZIP: 33177",25.57091667,-80.37875000,21200,"SW 115th Rd",25.56962,-80.37929,S1400,0.15,33177,Goulds,86,Miami-Dade,Florida,USGS,022907085,"Black Creek @ Goulds, FL","Black Creek @ Goulds, FL"
265,"Black Cypress","Cass County",TX,"United States",Southwest,"State Hwy 155",32.93861110,-94.48611110,,"State Hwy 155",32.9386,-94.48611,S1200,0,,,67,Cass,Texas,USGS,07346020,"Black Cypress @ Cass County, TX","Black Cypress @ Cass County, TX"
266,"Black Earth","Cross Plains",WI,"United States",Midwest,"2598 Main St, ZIP: 53528",43.10972220,-89.64083330,2598,"Main St",43.10996,-89.64081,S1200,0.03,53528,"Cross Plains",25,Dane,Wisconsin,USGS,05406457,"Black Earth @ Cross Plains, WI","Black Earth @ Cross Plains, WI"
267,"Black Earth","Dane County",WI,"United States",Midwest,"4912 S Valley Rd, ZIP: 53515",43.12500000,-89.70972220,4912,"S Valley Rd",43.125,-89.70977,S1400,0,53515,,25,Dane,Wisconsin,USGS,05406497,"Black Earth @ Dane County, WI","Black Earth @ Dane County, WI"
268,"Black Earth","Dane County",WI,"United States",Midwest,"US Hwy 14",43.13416667,-89.73222220,,"US Hwy 14",43.1346,-89.73193,S1200,0.05,,,25,Dane,Wisconsin,USGS,05406500,"Black Earth @ Dane County, WI","Black Earth @ Dane County, WI near  US Hwy 14"
269,"Black Earth","Dane County",WI,"United States",Midwest,"13 Main St, ZIP: 53528",43.11472220,-89.66416670,13,"Main St",43.11514,-89.6641,S1200,0.05,53528,,25,Dane,Wisconsin,USGS,05406479,"Black Earth @ Dane County, WI","Black Earth @ Dane County, WI near 13 Main St, ZIP: 53528"
270,"Black River","Pender County",NC,"United States",Southeast,"32020 State Hwy 210, ZIP: 28435",34.43166667,-78.14361110,32020,"State Hwy 210",34.43162,-78.14359,S1200,0.01,28435,,141,Pender,"North Carolina",USGS,02107544,"Black River @ Pender County, NC","Black River @ Pender County, NC"
271,"Black River","Reynolds County",MO,"United States",Midwest,"State Hwy K",37.32504888,-90.76400930,,"State Hwy K",37.32516,-90.76402,S1200,0.01,,,179,Reynolds,Missouri,USGS,07061600,"Black River @ Reynolds County, MO","Black River @ Reynolds County, MO"
272,"Black River","St. Clair County",MI,"United States",Midwest,"6884 Jeddo Rd, ZIP: 48032",43.15252665,-82.62409180,6884,"Jeddo Rd",43.15085,-82.62375,S1400,0.19,48032,,147,"St. Clair",Michigan,USGS,04159492,"Black River @ St. Clair County, MI","Black River @ St. Clair County, MI"
273,"Black Sulphur","Rio Blanco County",CO,"United States",West,"Co Rd 26",39.87136150,-108.28758700,,"Co Rd 26",39.87113,-108.28753,S1400,0.03,,,103,"Rio Blanco",Colorado,USGS,09306175,"Black Sulphur @ Rio Blanco County, CO","Black Sulphur @ Rio Blanco County, CO"
274,"Blacks Creek","Burlington County",NJ,"United States",Northeast,"31 Chesterfield Rd, ZIP: 8515",40.10944444,-74.64166670,31,"Chesterfield Rd",40.10968,-74.64173,S1400,0.03,8515,,5,Burlington,"New Jersey",USGS,01464527,"Blacks Creek @ Burlington County, NJ","Blacks Creek @ Burlington County, NJ"
275,"Blacks Fork","Sweetwater County",WY,"United States",West,"7801 State Hwy 374, ZIP: 82934",41.54607224,-109.69347460,7801,"State Hwy 374",41.54555,-109.69346,S1200,0.06,82934,,37,Sweetwater,Wyoming,USGS,09224700,"Blacks Fork @ Sweetwater County, WY","Blacks Fork @ Sweetwater County, WY"
276,"Blackstone River","Worcester County",MA,"United States",Northeast,"99 Main St, ZIP: 1529",42.02287570,-71.57228590,99,"Main St",42.02356,-71.57208,S1200,0.08,1529,,27,Worcester,Massachusetts,USGS,01111230,"Blackstone River @ Worcester County, MA","Blackstone River @ Worcester County, MA"
277,"Blackwater River",Davis,WV,"United States",Southeast,"869 William Ave",39.12705240,-79.46838520,869,"William Ave",39.12755,-79.46932,S1200,0.1,,Davis,93,Tucker,"West Virginia",USGS,03066000,"Blackwater River @ Davis, WV","Blackwater River @ Davis, WV"
278,"Blackwater River","Surry County",VA,"United States",Southeast,"6268 State Rte 617, ZIP: 23846",37.02514990,-76.87468240,6268,"State Rte 617",37.02534,-76.87474,S1400,0.02,23846,,181,Surry,Virginia,USGS,02047500,"Blackwater River @ Surry County, VA","Blackwater River @ Surry County, VA"
279,"Blackwater River","Tucker County",WV,"United States",Southeast,"Beech Ln",39.06427539,-79.41338220,,"Beech Ln",39.06446,-79.41332,S1400,0.02,,,93,Tucker,"West Virginia",USGS,03065200,"Blackwater River @ Tucker County, WV","Blackwater River @ Tucker County, WV"
280,"Blackwater River","Tucker County",WV,"United States",Southeast,"Camp 70 Rd",39.14010775,-79.41977150,,"Camp 70 Rd",39.14057,-79.41964,S1400,0.05,,,93,Tucker,"West Virginia",USGS,03065400,"Blackwater River @ Tucker County, WV","Blackwater River @ Tucker County, WV near  Camp 70 Rd"
281,"Blackwater River","Tucker County",WV,"United States",Southeast,"Canaan Valley Maintenance Rd",39.03955340,-79.45532870,,"Canaan Valley Maintenance Rd",39.0384,-79.4562,S1400,0.15,,,93,Tucker,"West Virginia",USGS,03065050,"Blackwater River @ Tucker County, WV","Blackwater River @ Tucker County, WV near  Canaan Valley Maintenance Rd"
282,"Blackwood Creek","Placer County",CA,"United States",West,"Interlaken Rd",39.10740708,-120.16213520,,"Interlaken Rd",39.10732,-120.1622,S1400,0.01,,,61,Placer,California,USGS,10336660,"Blackwood Creek @ Placer County, CA","Blackwood Creek @ Placer County, CA"
283,"Blanco River",,N/A,,N/A,,30.00555556,-97.95250000,,,,,,,,,,,,USGS,08171290,"Blanco River","Blanco River"
284,"Blanco River","Blanco County",TX,"United States",Southwest,"800 Crabapple Rd, ZIP: 78606",30.10111110,-98.51277780,800,"Crabapple Rd",30.10059,-98.51178,S1400,0.11,78606,,31,Blanco,Texas,USGS,08170800,"Blanco River @ Blanco County, TX","Blanco River @ Blanco County, TX"
285,"Blanco River",Wimberley,TX,"United States",Southwest,"138 Malone Dr, ZIP: 78676",29.99438080,-98.08889800,138,"Malone Dr",29.99459,-98.08908,S1400,0.03,78676,Wimberley,209,Hays,Texas,USGS,08171000,"Blanco River @ Wimberley, TX","Blanco River @ Wimberley, TX"
286,"Blossom River",,N/A,,N/A,,55.42578169,-130.56280630,,,,,,,,,,,,USGS,15011894,"Blossom River","Blossom River"
287,"Blowout Creek","Linn County",OR,"United States",West,"Nat For Dev Rd 10",44.65289999,-122.13090800,,"Nat For Dev Rd 10",44.65291,-122.13091,S1400,0,,,43,Linn,Oregon,USGS,14180300,"Blowout Creek @ Linn County, OR","Blowout Creek @ Linn County, OR"
288,"Blue Creek","Stevens County",WA,"United States",West,"Blue Creek Rd",47.89682720,-118.13581120,,"Blue Creek Rd",47.89677,-118.13576,S1400,0.01,,,65,Stevens,Washington,USGS,12433561,"Blue Creek @ Stevens County, WA","Blue Creek @ Stevens County, WA"
289,"Blue Hole",,N/A,,N/A,,29.97995520,-82.75845700,,,,,,,,,,,,USGS,02322688,"Blue Hole","Blue Hole"
290,"Blue River","Johnston County",OK,"United States",Southwest,,34.38342600,-96.60055790,,,34.38325,-96.60025,S1740,0.03,,,69,Johnston,Oklahoma,USGS,07332390,"Blue River @ Johnston County, OK","Blue River @ Johnston County, OK"
291,"Blue River","Kansas City",MO,"United States",Midwest,"1209 E Blue Ridge Blvd, ZIP: 64146",38.88941667,-94.58066670,1209,"E Blue Ridge Blvd",38.88943,-94.58067,S1400,0,64146,"Kansas City",95,Jackson,Missouri,USGS,06893150,"Blue River @ Kansas City, MO","Blue River @ Kansas City, MO near 1209 E Blue Ridge Blvd, ZIP: 64146"
292,"Blue River","Kansas City",MO,"United States",Midwest,"2398 E 95 St, ZIP: 64131",38.95700000,-94.55888890,2398,"E 95 St",38.95701,-94.55918,S1400,0.03,64131,"Kansas City",95,Jackson,Missouri,USGS,06893500,"Blue River @ Kansas City, MO","Blue River @ Kansas City, MO near 2398 E 95 St, ZIP: 64131"
293,"Blue River","Overland Park",KS,"United States",Midwest,"Kenneth Rd",38.84222220,-94.61222220,,"Kenneth Rd",38.84216,-94.61226,S1400,0.01,,"Overland Park",91,Johnson,Kansas,USGS,06893100,"Blue River @ Overland Park, KS","Blue River @ Overland Park, KS"
294,"Blue River","Summit County",CO,"United States",West,"Co Rd 1813",39.88026354,-106.33391750,,"Co Rd 1813",39.8802,-106.33392,S1400,0.01,,,117,Summit,Colorado,USGS,09057500,"Blue River @ Summit County, CO","Blue River @ Summit County, CO"
295,"Blue Springs","Volusia County",FL,"United States",Southeast,,28.94415400,-81.33978660,,,28.94485,-81.3403,S1400,0.09,,,127,Volusia,Florida,USGS,02235500,"Blue Springs @ Volusia County, FL","Blue Springs @ Volusia County, FL"
296,"Bluff Creek",Vancleave,MS,"United States",Southeast,"12876 State Hwy 57, ZIP: 39565",30.53083333,-88.68750000,12876,"State Hwy 57",30.53084,-88.68755,S1200,0,39565,Vancleave,59,Jackson,Mississippi,USGS,02480254,"Bluff Creek @ Vancleave, MS","Bluff Creek @ Vancleave, MS"
297,"Boardman River","Grand Traverse County",MI,"United States",Midwest,"Brown Bridge Rd",44.65667000,-85.43673100,,"Brown Bridge Rd",44.65654,-85.4367,S1400,0.01,,,55,"Grand Traverse",Michigan,USGS,04126970,"Boardman River @ Grand Traverse County, MI","Boardman River @ Grand Traverse County, MI"
298,"Boardman River","Traverse City",MI,"United States",Midwest,"E Grandview Pkwy",44.76527890,-85.62118730,,"E Grandview Pkwy",44.76527,-85.62119,S1200,0,,"Traverse City",55,"Grand Traverse",Michigan,USGS,04127499,"Boardman River @ Traverse City, MI","Boardman River @ Traverse City, MI"
299,"Bobs Creek","Bedford County",PA,"United States",Northeast,T652,40.27257630,-78.59835060,,T652,40.27279,-78.59793,S1400,0.04,,,9,Bedford,Pennsylvania,USGS,01559795,"Bobs Creek @ Bedford County, PA","Bobs Creek @ Bedford County, PA"
300,"Boggy Creek",Lumberton,TX,"United States",Southwest,"State Hwy 421",30.23250000,-94.22305560,,"State Hwy 421",30.23265,-94.22318,S1400,0.02,,Lumberton,199,Hardin,Texas,USGS,08041745,"Boggy Creek @ Lumberton, TX","Boggy Creek @ Lumberton, TX"
301,"Boggy Creek",Orlando,FL,"United States",Southeast,"13450 Boggy Creek Rd, ZIP: 32824",28.37139699,-81.31062470,13450,"Boggy Creek Rd",28.37125,-81.30942,S1400,0.12,32824,Orlando,95,Orange,Florida,USGS,02262900,"Boggy Creek @ Orlando, FL","Boggy Creek @ Orlando, FL"
302,"Bogue Phalia","Washington County",MS,"United States",Southeast,"Tribbett Rd",33.39666667,-90.84777780,,"Tribbett Rd",33.3968,-90.84777,S1400,0.01,,,151,Washington,Mississippi,USGS,7288650,"Bogue Phalia @ Washington County, MS","Bogue Phalia @ Washington County, MS"
303,"Boiling River",,N/A,,N/A,,44.98495278,-110.68838890,,,,,,,,,,,,USGS,06190540,"Boiling River","Boiling River"
304,"Bois D'Arc","Fannin County",TX,"United States",Southwest,"E FM 1396",33.68222220,-95.98444440,,"E FM 1396",33.68165,-95.98491,S1400,0.08,,,147,Fannin,Texas,USGS,07332620,"Bois D'Arc @ Fannin County, TX","Bois D'Arc @ Fannin County, TX near  E FM 1396"
305,"Bois D'Arc","Fannin County",TX,"United States",Southwest,"FM 409",33.74416667,-95.96111110,,"FM 409",33.74423,-95.96111,S1400,0.01,,,147,Fannin,Texas,USGS,07332622,"Bois D'Arc @ Fannin County, TX","Bois D'Arc @ Fannin County, TX near  FM 409"
306,"Boise River","Canyon County",ID,"United States",West,"29000 Hexon Rd, ZIP: 83660",43.78166667,-116.97277780,29000,"Hexon Rd",43.78157,-116.97281,S1400,0.01,83660,,27,Canyon,Idaho,USGS,13213000,"Boise River @ Canyon County, ID","Boise River @ Canyon County, ID"
307,"Boise River",Notus,ID,"United States",West,"45 Elgin Ave, ZIP: 83656",43.72238280,-116.79375520,45,"Elgin Ave",43.72287,-116.79359,S1200,0.06,83656,Notus,27,Canyon,Idaho,USGS,13212500,"Boise River @ Notus, ID","Boise River @ Notus, ID"
308,"Bonnet Creek","Osceola County",FL,"United States",Southeast,"Captiva Trl",28.32528785,-81.52062840,,"Captiva Trl",28.32529,-81.52039,S1400,0.02,,,97,Osceola,Florida,USGS,02264100,"Bonnet Creek @ Osceola County, FL","Bonnet Creek @ Osceola County, FL"
309,"Bottle Creek",,N/A,,N/A,,25.46797778,-80.85452780,,,,,,,,,,,,USGS,022908295,"Bottle Creek","Bottle Creek"
310,"Boulder Creek","Summit County",CO,"United States",West,"Co Rd 1376",39.73720820,-106.13585540,,"Co Rd 1376",39.73719,-106.13557,S1400,0.02,,,117,Summit,Colorado,USGS,09052500,"Boulder Creek @ Summit County, CO","Boulder Creek @ Summit County, CO"
311,"Boulder River","Snohomish County",WA,"United States",West,"33052 Arlington-Darrington Rd, ZIP: 98223",48.27760727,-121.78041100,33052,"Arlington-Darrington Rd",48.27799,-121.78045,S1200,0.04,98223,,61,Snohomish,Washington,USGS,12166000,"Boulder River @ Snohomish County, WA","Boulder River @ Snohomish County, WA"
312,"Bound Brook",Middlesex,NJ,"United States",Northeast,"1201 Bound Brook Rd, ZIP: 8846",40.58083330,-74.49916670,1201,"Bound Brook Rd",40.58072,-74.49924,S1200,0.01,8846,Middlesex,23,Middlesex,"New Jersey",USGS,01403385,"Bound Brook @ Middlesex, NJ","Bound Brook @ Middlesex, NJ near 1201 Bound Brook Rd, ZIP: 8846"
313,"Bound Brook",Middlesex,NJ,"United States",Northeast,"190 Greenbrook Rd, ZIP: 8846",40.58500000,-74.50777778,190,"Greenbrook Rd",40.58487,-74.50795,S1400,0.02,8846,Middlesex,23,Middlesex,"New Jersey",USGS,01403900,"Bound Brook @ Middlesex, NJ","Bound Brook @ Middlesex, NJ near 190 Greenbrook Rd, ZIP: 8846"
314,"Boundary Creek",,N/A,,N/A,,44.18527778,-111.00777780,,,,,,,,,,,,USGS,13046680,"Boundary Creek","Boundary Creek"
315,"Box Elder","Rio Blanco County",CO,"United States",West,,39.88830670,-108.52842920,,,39.8887,-108.5287,S1400,0.05,,,103,"Rio Blanco",Colorado,USGS,09306240,"Box Elder @ Rio Blanco County, CO","Box Elder @ Rio Blanco County, CO"
316,"Box Elder","Rio Blanco County",CO,"United States",West,Tributart,39.91386136,-108.48537230,,,39.91358,-108.48371,S1400,0.15,,,103,"Rio Blanco",Colorado,USGS,09306241,"Box Elder @ Rio Blanco County, CO","Box Elder @ Rio Blanco County, CO near Tributart "
317,"Br-382 Nr","Bald Head Island",NC,"United States",Southeast,"98 Water Thrush Ct, ZIP: 28461",33.86276944,-78.00568889,98,"Water Thrush Ct",33.86349,-78.00605,S1400,0.09,28461,"Bald Head Island",19,Brunswick,"North Carolina",USGS,335146078002001,"Br-382 Nr @ Bald Head Island, NC","Br-382 Nr @ Bald Head Island, NC"
318,"Braden River","Manatee County",FL,"United States",Southeast,"Manatee Ave E",27.49642834,-82.52537409,,"Manatee Ave E",27.49639,-82.52536,S1200,0,,,81,Manatee,Florida,USGS,02300064,"Braden River @ Manatee County, FL","Braden River @ Manatee County, FL near  Manatee Ave E"
319,"Braden River","Manatee County",FL,"United States",Southeast,"5500 53rd Ave E",27.44587500,-82.49092920,5500,"53rd Ave E",27.44634,-82.49091,S1200,0.05,,,81,Manatee,Florida,USGS,02300044,"Braden River @ Manatee County, FL","Braden River @ Manatee County, FL near 5500 53rd Ave E"
320,"Brandywine Creek","Delaware County",PA,"United States",Northeast,"Mill Rd",39.86983280,-75.59326230,,"Mill Rd",39.87023,-75.59277,S1400,0.06,,,45,Delaware,Pennsylvania,USGS,01481000,"Brandywine Creek @ Delaware County, PA","Brandywine Creek @ Delaware County, PA"
321,"Brandywine Creek","New Castle County",DE,"United States",Northeast,"15 Walkers Bank, ZIP: 19807",39.76950000,-75.57669440,15,"Walkers Bank",39.76988,-75.57664,S1400,0.04,19807,,3,"New Castle",Delaware,USGS,01481500,"Brandywine Creek @ New Castle County, DE","Brandywine Creek @ New Castle County, DE"
322,"Brazos River",,N/A,,N/A,,31.86682458,-97.36695760,,,,,,,,,,,,USGS,08092600,"Brazos River","Brazos River"
323,"Brazos River","Baylor County",TX,"United States",Southwest,"State Spur 334",33.58092766,-99.26757560,,"State Spur 334",33.58097,-99.26758,S1200,0,,,23,Baylor,Texas,USGS,08082500,"Brazos River @ Baylor County, TX","Brazos River @ Baylor County, TX"
324,"Brazos River","Falls County",TX,"United States",Southwest,"FM 413",31.13407098,-96.82498260,,"FM 413",31.13437,-96.82513,S1400,0.04,,,145,Falls,Texas,USGS,08098290,"Brazos River @ Falls County, TX","Brazos River @ Falls County, TX"
325,"Brazos River","Palo Pinto County",TX,"United States",Southwest,"Red Bluff Rd",32.87206697,-98.42588600,,"Red Bluff Rd",32.87233,-98.42567,S1400,0.04,,,363,"Palo Pinto",Texas,USGS,08088600,"Brazos River @ Palo Pinto County, TX","Brazos River @ Palo Pinto County, TX"
326,"Brazos River","Parker County",TX,"United States",Southwest,"6928 FM 1189, ZIP: 76066",32.61568907,-97.92587030,6928,"FM 1189",32.6157,-97.9254,S1400,0.04,76066,,367,Parker,Texas,USGS,08090800,"Brazos River @ Parker County, TX","Brazos River @ Parker County, TX"
327,"Brazos River N Fork","Garza County",TX,"United States",Southwest,"N Ave F",33.24870448,-101.33847150,,"N Ave F",33.24868,-101.33845,S1400,0,,,169,Garza,Texas,USGS,08079575,"Brazos River N Fork @ Garza County, TX","Brazos River N Fork @ Garza County, TX"
328,"Breitenbush River","Marion County",OR,"United States",West,"Breitenbush Rd SE",44.75262179,-122.12896480,,"Breitenbush Rd SE",44.75184,-122.12877,S1400,0.09,,,47,Marion,Oregon,USGS,14179000,"Breitenbush River @ Marion County, OR","Breitenbush River @ Marion County, OR"
329,"Brewery Creek-Upstream","Cross Plains",WI,"United States",Midwest,"599 Donovan Ct, ZIP: 53528",43.12527778,-89.63500000,599,"Donovan Ct",43.12586,-89.63584,S1400,0.09,53528,"Cross Plains",25,Dane,Wisconsin,USGS,05406469,"Brewery Creek-Upstream @ Cross Plains, WI","Brewery Creek-Upstream @ Cross Plains, WI"
330,"Brickyard Creek",,N/A,,N/A,,32.47407909,-80.69260600,,,,,,,,,,,,USGS,02176585,"Brickyard Creek","Brickyard Creek"
331,"Broad River","Fairfield County",SC,"United States",Southeast,,34.26070285,-81.33037470,,,34.26197,-81.3305,S1400,0.14,,,39,Fairfield,"South Carolina",USGS,02160991,"Broad River @ Fairfield County, SC","Broad River @ Fairfield County, SC"
332,"Broad River","Shell Point",SC,"United States",Southeast,"Okatie Hwy",32.38908379,-80.77955160,,"Okatie Hwy",32.38777,-80.77869,S1200,0.17,,"Shell Point",13,Beaufort,"South Carolina",USGS,02176560,"Broad River @ Shell Point, SC","Broad River @ Shell Point, SC"
333,"Broad River","Union County",SC,"United States",Southeast,"4198 Carlisle Chester Hwy, ZIP: 29031",34.59513930,-81.42120890,4198,"Carlisle Chester Hwy",34.59517,-81.42137,S1200,0.02,29031,,87,Union,"South Carolina",USGS,02156500,"Broad River @ Union County, SC","Broad River @ Union County, SC"
334,"Broad Run","Dulles Town Center",VA,"United States",Southeast,"Leesburg Pike",39.04641667,-77.43238889,,"Leesburg Pike",39.04659,-77.43227,S1200,0.02,,"Dulles Town Center",107,Loudoun,Virginia,USGS,01644280,"Broad Run @ Dulles Town Center, VA","Broad Run @ Dulles Town Center, VA"
335,"Brooks Lake",,N/A,,N/A,,36.22791280,-79.72197500,,,,,,,,,,,,USGS,0209330990,"Brooks Lake","Brooks Lake"
336,"Bruce Valley","Trempealeau County",WI,"United States",Midwest,"Co Rd D",44.44579646,-91.36126940,,"Co Rd D",44.44579,-91.36166,S1400,0.03,,,121,Trempealeau,Wisconsin,USGS,05379288,"Bruce Valley @ Trempealeau County, WI","Bruce Valley @ Trempealeau County, WI"
337,"Brush Creek","Kansas City",MO,"United States",Midwest,"4834 Rockhill Rd, ZIP: 64110",39.03925000,-94.57872220,4834,"Rockhill Rd",39.03921,-94.57859,S1400,0.01,64110,"Kansas City",95,Jackson,Missouri,USGS,06893562,"Brush Creek @ Kansas City, MO","Brush Creek @ Kansas City, MO"
338,"Brushy Creek","Cedar Park",TX,"United States",Southwest,"1842 Valle Verde Dr, ZIP: 78641",30.54853333,-97.78343330,1842,"Valle Verde Dr",30.54824,-97.78391,S1400,0.06,78641,"Cedar Park",491,Williamson,Texas,USGS,08105863,"Brushy Creek @ Cedar Park, TX","Brushy Creek @ Cedar Park, TX"
339,"Brushy Fork","Gwinnett County",GA,"United States",Southeast,"4346 Beaver Rd SW, ZIP: 30052",33.82149715,-83.94240760,4346,"Beaver Rd SW",33.82146,-83.94241,S1400,0,30052,,135,Gwinnett,Georgia,USGS,02207400,"Brushy Fork @ Gwinnett County, GA","Brushy Fork @ Gwinnett County, GA"
340,"Bryant Creek","Douglas County",NV,"United States",West,,38.79379494,-119.67267300,,,38.79418,-119.67241,S1500,0.05,,,5,Douglas,Nevada,USGS,10308800,"Bryant Creek @ Douglas County, NV","Bryant Creek @ Douglas County, NV"
341,"Buck Creek","Horry County",SC,"United States",Southeast,"115 White Creek Ln, ZIP: 29566",33.95350500,-78.71973988,115,"White Creek Ln",33.9535,-78.71974,S1400,0,29566,,51,Horry,"South Carolina",USGS,02110400,"Buck Creek @ Horry County, SC","Buck Creek @ Horry County, SC"
342,"Buckhorn Creek","Hardee County",FL,"United States",Southeast,"Kelly Roberts Rd",27.51809267,-81.66591258,,"Kelly Roberts Rd",27.51809,-81.66598,S1400,0.01,,,49,Hardee,Florida,USGS,02296057,"Buckhorn Creek @ Hardee County, FL","Buckhorn Creek @ Hardee County, FL"
343,"Bucks Branch","Sussex County",DE,"United States",Northeast,"20805 Rd 561, ZIP: 19973",38.69147220,-75.63488889,20805,"Rd 561",38.69148,-75.63489,S1400,0,19973,,5,Sussex,Delaware,USGS,01487150,"Bucks Branch @ Sussex County, DE","Bucks Branch @ Sussex County, DE"
344,"Buffalo Bayou",,N/A,,N/A,,29.74939477,-95.29104730,,,,,,,,,,,,USGS,08074710,"Buffalo Bayou","Buffalo Bayou"
345,"Buffalo Bayou",Houston,TX,"United States",Southwest,"1 N Main St, ZIP: 77009",29.76522790,-95.35910460,1,"N Main St",29.76536,-95.35882,S1400,0.03,77009,Houston,201,Harris,Texas,USGS,08074600,"Buffalo Bayou @ Houston, TX","Buffalo Bayou @ Houston, TX"
346,"Buffalo Bayou",Houston,TX,"United States",Southwest,"639 McKee St, ZIP: 77002",29.76606119,-95.35216000,639,"McKee St",29.76606,-95.35204,S1400,0.01,77002,Houston,201,Harris,Texas,USGS,08074610,"Buffalo Bayou @ Houston, TX","Buffalo Bayou @ Houston, TX near 639 McKee St, ZIP: 77002"
347,"Buffalo Bayou",Houston,TX,"United States",Southwest,"843 S Shepherd Dr, ZIP: 77019",29.76022829,-95.40855050,843,"S Shepherd Dr",29.76021,-95.40875,S1400,0.02,77019,Houston,201,Harris,Texas,USGS,08074000,"Buffalo Bayou @ Houston, TX","Buffalo Bayou @ Houston, TX near 843 S Shepherd Dr, ZIP: 77019"
348,"Buffalo Creek",Barrackville,WV,"United States",Southeast,"Buffalo Rd",39.50397288,-80.17202350,,"Buffalo Rd",39.5039,-80.17193,S1400,0.01,,Barrackville,49,Marion,"West Virginia",USGS,03061500,"Buffalo Creek @ Barrackville, WV","Buffalo Creek @ Barrackville, WV"
349,"Buffalo River",,N/A,,N/A,,46.96107360,-96.66146500,,,,,,,,,,,,USGS,05062000,"Buffalo River","Buffalo River"
350,"Buffalo River",Hawley,MN,"United States",Midwest,"5 Riverview Acres, ZIP: 56549",46.87916667,-96.31111110,5,"Riverview Acres",46.87908,-96.31063,S1400,0.04,56549,Hawley,27,Clay,Minnesota,USGS,05060950,"Buffalo River @ Hawley, MN","Buffalo River @ Hawley, MN"
351,"Bull Creek",Austin,TX,"United States",Southwest,"7301 N Capital of Texas Hwy",30.37214825,-97.78473010,7301,"N Capital of Texas Hwy",30.37229,-97.78474,S1200,0.02,,Austin,453,Travis,Texas,USGS,08154700,"Bull Creek @ Austin, TX","Bull Creek @ Austin, TX"
352,"Bull Run",,N/A,,N/A,,45.49817430,-122.01230490,,,,,,,,,,,,USGS,14138850,"Bull Run","Bull Run"
353,"Bull Run","Multnomah County",OR,"United States",West,"Nat For Dev Rd 10",45.47095150,-121.86535670,,"Nat For Dev Rd 10",45.47162,-121.86402,S1500,0.13,,,51,Multnomah,Oregon,USGS,14138720,"Bull Run @ Multnomah County, OR","Bull Run @ Multnomah County, OR"
354,"Bullfrog Creek",Gibsonton,FL,"United States",Southeast,"11245 Tamiami Trl N, ZIP: 33534",27.83780370,-82.38203749,11245,"Tamiami Trl N",27.83779,-82.38175,S1200,0.03,33534,Gibsonton,57,Hillsborough,Florida,USGS,02300705,"Bullfrog Creek @ Gibsonton, FL","Bullfrog Creek @ Gibsonton, FL"
355,"Bullpasture River","Bath County",VA,"United States",Southeast,"170 Junction Rd, ZIP: 24487",38.19540308,-79.57032338,170,"Junction Rd",38.19505,-79.57106,S1400,0.08,24487,,17,Bath,Virginia,USGS,02015700,"Bullpasture River @ Bath County, VA","Bullpasture River @ Bath County, VA"
356,"Burke Arroyo",,N/A,,N/A,,37.42711110,-103.96983330,,,,,,,,,,,,USGS,07126320,"Burke Arroyo","Burke Arroyo"
357,"Burnt Fork","North Decatur",GA,"United States",Southeast,"2789 Millwood Way, ZIP: 30033",33.82138889,-84.27472220,2789,"Millwood Way",33.82152,-84.27467,S1400,0.02,30033,"North Decatur",89,DeKalb,Georgia,USGS,023362095,"Burnt Fork @ North Decatur, GA","Burnt Fork @ North Decatur, GA"
358,"C-111 Wetland",,N/A,,N/A,,25.29444444,-80.52000000,,,,,,,,,,,,USGS,251740080311200,"C-111 Wetland","C-111 Wetland"
359,"Cacapon River","Morgan County",WV,"United States",Southeast,"Goldfinch Ln",39.58231580,-78.30973120,,"Goldfinch Ln",39.58289,-78.30989,S1400,0.07,,,65,Morgan,"West Virginia",USGS,01611500,"Cacapon River @ Morgan County, WV","Cacapon River @ Morgan County, WV"
360,"Cache La","Fort Collins",CO,"United States",West,"11 E Lincoln Ave, ZIP: 80524",40.58808330,-105.06922220,11,"E Lincoln Ave",40.58857,-105.06929,S1400,0.05,80524,"Fort Collins",69,Larimer,Colorado,USGS,06752260,"Cache La @ Fort Collins, CO","Cache La @ Fort Collins, CO"
361,"Caddo Creek","Carter County",OK,"United States",Southwest," Gene Autry Rd, ZIP: 73401",34.24037109,-97.05167980,,"Gene Autry Rd",34.24062,-97.05191,S1400,0.03,73401,,19,Carter,Oklahoma,USGS,07330700,"Caddo Creek @ Carter County, OK","Caddo Creek @ Carter County, OK near  Gene Autry Rd, ZIP: 73401"
362,"Caddo Creek","Carter County",OK,"United States",Southwest,"6200 Refinery Rd, ZIP: 73401",34.24259287,-97.10806980,6200,"Refinery Rd",34.24259,-97.10815,S1400,0.01,73401,,19,Carter,Oklahoma,USGS,07330500,"Caddo Creek @ Carter County, OK","Caddo Creek @ Carter County, OK near 6200 Refinery Rd, ZIP: 73401"
363,"Caernarvon Outfall","Plaquemines County",LA,"United States",Southeast,,29.85355556,-89.90769440,,,29.85317,-89.90863,S1400,0.1,,,75,Plaquemines,Louisiana,USGS,295124089542100,"Caernarvon Outfall @ Plaquemines County, LA","Caernarvon Outfall @ Plaquemines County, LA"
364,"Cahaba River",Moody,AL,"United States",Southeast,"3097 Whites Chapel Pkwy, ZIP: 35173",33.60371416,-86.54915170,3097,"Whites Chapel Pkwy",33.60505,-86.54879,S1400,0.15,35173,Moody,115,"St. Clair",Alabama,USGS,02423160,"Cahaba River @ Moody, AL","Cahaba River @ Moody, AL"
365,"Caillou Bay",,N/A,,N/A,,29.07805556,-90.87138890,,,,,,,,,,,,USGS,073813498,"Caillou Bay","Caillou Bay"
366,"Caillou Lake",,N/A,,N/A,,29.24916667,-90.92111110,,,,,,,,,,,,USGS,07381349,"Caillou Lake","Caillou Lake"
367,"Calamus River","Garfield County",NE,"United States",Midwest,"Dam Rd",41.81027778,-99.18305560,,"Dam Rd",41.81028,-99.18335,S1200,0.02,,,71,Garfield,Nebraska,USGS,06787500,"Calamus River @ Garfield County, NE","Calamus River @ Garfield County, NE"
368,"Calcasieu River",,N/A,,N/A,,29.81577620,-93.34904300,,,,,,,,,,,,USGS,08017118,"Calcasieu River","Calcasieu River"
369,"Calcasieu River",Westlake,LA,"United States",Southeast,"I- 10",30.23714987,-93.24737640,,"I- 10",30.2371,-93.24738,S1100,0.01,,Westlake,19,Calcasieu,Louisiana,USGS,08017044,"Calcasieu River @ Westlake, LA","Calcasieu River @ Westlake, LA"
370,"Calfpasture River","Rockbridge County",VA,"United States",Southeast,"State Rte 42",37.98790619,-79.49365288,,"State Rte 42",37.98804,-79.4937,S1200,0.02,,,163,Rockbridge,Virginia,USGS,02020500,"Calfpasture River @ Rockbridge County, VA","Calfpasture River @ Rockbridge County, VA"
371,"California Gulch","Lake County",CO,"United States",West,"620 State Hwy 300, ZIP: 80461",39.22248969,-106.35530300,620,"State Hwy 300",39.22249,-106.3553,S1200,0,80461,,65,Lake,Colorado,USGS,07081800,"California Gulch @ Lake County, CO","California Gulch @ Lake County, CO"
372,"Caloosahatchee River",Alva,FL,"United States",Southeast,"18001 Interlochen Ln, ZIP: 33920",26.72395700,-81.69841490,18001,"Interlochen Ln",26.72482,-81.69794,S1400,0.11,33920,Alva,71,Lee,Florida,USGS,02292900,"Caloosahatchee River @ Alva, FL","Caloosahatchee River @ Alva, FL"
373,"Calumet Sag",Lemont,IL,"United States",Midwest,Trail,41.69638889,-87.94166670,,Trail,41.69595,-87.94142,S1820,0.05,,Lemont,31,Cook,Illinois,USGS,05536700,"Calumet Sag @ Lemont, IL","Calumet Sag @ Lemont, IL"
374,"Cambridge Res. Trib.",Lexington,MA,"United States",Northeast,"407 Lincoln St, ZIP: 2421",42.43592855,-71.26005670,407,"Lincoln St",42.4356,-71.26004,S1400,0.04,2421,Lexington,17,Middlesex,Massachusetts,USGS,01104415,"Cambridge Res. Trib.  @ Lexington, MA","Cambridge Res. Trib.  @ Lexington, MA"
375,"Cambridge Res. Trib.",Waltham,MA,"United States",Northeast,"196 Tracer Ln, ZIP: 2451",42.41981770,-71.25755650,196,"Tracer Ln",42.41989,-71.25739,S1400,0.02,2451,Waltham,17,Middlesex,Massachusetts,USGS,01104420,"Cambridge Res. Trib.  @ Waltham, MA","Cambridge Res. Trib.  @ Waltham, MA"
376,"Campbell Creek","Beaufort County",NC,"United States",Southeast,"State Hwy 33 E",35.28711400,-76.68659500,,"State Hwy 33 E",35.28714,-76.68657,S1200,0,,,13,Beaufort,"North Carolina",USGS,0208455145,"Campbell Creek @ Beaufort County, NC","Campbell Creek @ Beaufort County, NC"
377,"Campbell Creek",,N/A,,N/A,"Site 4",35.28350178,-76.63631680,,,,,,,,,,,,USGS,0208455205,"Campbell Creek","Campbell Creek near Site 4"
378,"Campbell Creek",,N/A,,N/A,"Site 5",35.28627920,-76.62270560,,,,,,,,,,,,USGS,0208455220,"Campbell Creek","Campbell Creek near Site 5"
379,"Campbell Creek-Site",,N/A,,N/A,"Site 2",35.29044670,-76.66298370,,,,,,,,,,,,USGS,0208455175,"Campbell Creek-Site","Campbell Creek-Site"
380,"Campbell Creek--Site",,N/A,,N/A,"Site 1",35.29183588,-76.67548390,,,,,,,,,,,,USGS,0208455165,"Campbell Creek--Site","Campbell Creek--Site near Site 1"
381,"Campbell Creek--Site",,N/A,,N/A,"Site 3",35.28211330,-76.65298350,,,,,,,,,,,,USGS,0208455195,"Campbell Creek--Site","Campbell Creek--Site near Site 3"
382,"Campbell Slough",,N/A,,N/A,UNIT,45.78472220,-122.75402780,,,,,,,,,,,,USGS,454705122451400,"Campbell Slough","Campbell Slough"
383,"Canadian River","Jackson County",CO,"United States",West,,40.69525638,-106.06612870,,,40.6952,-106.06602,S1400,0.01,,,57,Jackson,Colorado,USGS,06619400,"Canadian River @ Jackson County, CO","Canadian River @ Jackson County, CO"
384,"Canadian River","Jackson County",CO,"United States",West,"Jc Rd 5",40.80803159,-106.23641250,,"Jc Rd 5",40.80813,-106.2366,S1400,0.02,,,57,Jackson,Colorado,USGS,06619450,"Canadian River @ Jackson County, CO","Canadian River @ Jackson County, CO near  Jc Rd 5"
385,"Canadian Rv","Potter County",TX,"United States",Southwest,"US Hwy 87",35.47032610,-101.87962800,,"US Hwy 87",35.47025,-101.87988,S1200,0.02,,,375,Potter,Texas,USGS,07227500,"Canadian Rv @ Potter County, TX","Canadian Rv @ Potter County, TX"
386,"Canal 405 Force Main","Bay Lake",FL,"United States",Southeast,,28.38000780,-81.58285160,,,28.38013,-81.58284,S1400,0.01,,"Bay Lake",95,Orange,Florida,USGS,022662947,"Canal 405 Force Main @ Bay Lake, FL","Canal 405 Force Main @ Bay Lake, FL"
387,"Candy Cr","Guilford County",NC,"United States",Southeast,"5287 Hopkins Rd, ZIP: 27214",36.23402379,-79.66169560,5287,"Hopkins Rd",36.23393,-79.66169,S1400,0.01,27214,,81,Guilford,"North Carolina",USGS,0209331325,"Candy Cr @ Guilford County, NC","Candy Cr @ Guilford County, NC"
388,"Cane Creek",,N/A,,N/A,,36.02597330,-79.17473658,,,,,,,,,,,,USGS,02096842,"Cane Creek","Cane Creek"
389,"Cannonball River",Regent,ND,"United States",Midwest,,46.42667116,-102.55183030,,,46.42648,-102.55185,S1400,0.02,,Regent,41,Hettinger,"North Dakota",USGS,06350000,"Cannonball River @ Regent, ND","Cannonball River @ Regent, ND"
390,"Cannonball River","Sioux County",ND,"United States",Midwest,"State Hwy 6",46.37611110,-100.93444440,,"State Hwy 6",46.37611,-100.93469,S1200,0.02,,,85,Sioux,"North Dakota",USGS,06354000,"Cannonball River @ Sioux County, ND","Cannonball River @ Sioux County, ND"
391,"Cape Fear",,N/A,,N/A,,33.98350668,-77.94415390,,,,,,,,,,,,USGS,02108850,"Cape Fear","Cape Fear"
392,"Cape Fear","Bladen County",NC,"United States",Southeast,"Glengerry Rd",34.83555556,-78.82361110,,"Glengerry Rd",34.83533,-78.82532,S1400,0.16,,,17,Bladen,"North Carolina",USGS,02105500,"Cape Fear @ Bladen County, NC","Cape Fear @ Bladen County, NC"
393,"Cape Fear",,N/A,,N/A,"Channel MKR 12",34.07644444,-77.93144440,,,,,,,,,,,,USGS,02108820,"Cape Fear","Cape Fear near Channel MKR 12"
394,"Cape Fear",,NC,"United States",Southeast,Phoenix,34.33072410,-78.02749170,,,,,,,,,,,"North Carolina",USGS,02107570,"Cape Fear","Cape Fear near Phoenix"
395,"Cape Fear",,NC,"United States",Southeast,"Site 1",34.28405814,-77.99637920,,,,,,,,,,,"North Carolina",USGS,02107571,"Cape Fear","Cape Fear near Site 1"
396,"Cape Fear",,NC,"United States",Southeast,"Siter 2",34.26022220,-77.98763889,,,,,,,,,,,"North Carolina",USGS,02107576,"Cape Fear","Cape Fear near Siter 2"
397,"Card Sound","Miami-Dade County",FL,"United States",Southeast,"Old Dixie Hwy",25.30500000,-80.38972220,,"Old Dixie Hwy",25.3051,-80.38957,S1400,0.02,,,86,Miami-Dade,Florida,USGS,251816080232200,"Card Sound @ Miami-Dade County, FL","Card Sound @ Miami-Dade County, FL"
398,"Caroline Springs","Terrell County",TX,"United States",Southwest,,30.46888889,-101.80305560,,,30.46924,-101.80395,S1400,0.09,,,443,Terrell,Texas,USGS,08447018,"Caroline Springs @ Terrell County, TX","Caroline Springs @ Terrell County, TX"
399,"Carquinez Strait","Solano County",CA,"United States",West,"I- 80",38.06130950,-122.22552410,,"I- 80",38.06134,-122.22521,S1100,0.03,,,95,Solano,California,USGS,11455820,"Carquinez Strait @ Solano County, CA","Carquinez Strait @ Solano County, CA"
400,"Carson Lake","Churchill County",NV,"United States",West,"1990 Norcutt Ln, ZIP: 89406",39.34325250,-118.74431520,1990,"Norcutt Ln",39.34376,-118.74432,S1400,0.06,89406,,1,Churchill,Nevada,USGS,10312180,"Carson Lake @ Churchill County, NV","Carson Lake @ Churchill County, NV"
401,"Carson River","Carson City",NV,"United States",West," Brunswick Canyon Rd, ZIP: 89701",39.18137778,-119.69486940,,"Brunswick Canyon Rd",39.18173,-119.69478,S1400,0.04,89701,"Carson City",510,"Carson City (city)",Nevada,USGS,10311400,"Carson River @ Carson City, NV","Carson River @ Carson City, NV"
402,"Carson River","Churchill County",NV,"United States",West,"5463 Tarzyn Rd, ZIP: 89406",39.55880594,-118.72598420,5463,"Tarzyn Rd",39.55872,-118.72598,S1400,0.01,89406,,1,Churchill,Nevada,USGS,10312275,"Carson River @ Churchill County, NV","Carson River @ Churchill County, NV"
403,"Carson River","Lyon County",NV,"United States",West,"Fort Churchill Rd",39.29166667,-119.31111100,,"Fort Churchill Rd",39.29297,-119.31097,S1400,0.15,,,19,Lyon,Nevada,USGS,10312000,"Carson River @ Lyon County, NV","Carson River @ Lyon County, NV"
404,"Cashie River","Bertie County",NC,"United States",Southeast,"399 Blanchards Rd, ZIP: 27983",35.92750000,-76.84500000,399,"Blanchards Rd",35.9262,-76.84596,S1400,0.17,27983,,15,Bertie,"North Carolina",USGS,02081133,"Cashie River @ Bertie County, NC","Cashie River @ Bertie County, NC"
405,"Ce 655",,N/A,,N/A,CE,40.82506150,-77.83722340,,,,,,,,,,,,USGS,404930077501401,"Ce 655","Ce 655"
406,"Ce 664",,N/A,,N/A,CE,40.82506150,-77.83694560,,,,,,,,,,,,USGS,404930077501401,"Ce 664","Ce 664"
407,"Cedar Creek","De Soto",KS,"United States",Midwest,"29139 W 83rd St, ZIP: 66018",38.97805556,-94.92277780,29139,"W 83rd St",38.97813,-94.92278,S1400,0.01,66018,"De Soto",91,Johnson,Kansas,USGS,06892495,"Cedar Creek @ De Soto, KS","Cedar Creek @ De Soto, KS"
408,"Cedar Creek","East Bethel",MN,"United States",Midwest,"Gopher Dr NE",45.39190888,-93.21244890,,"Gopher Dr NE",45.39184,-93.21245,S1400,0.01,,"East Bethel",3,Anoka,Minnesota,USGS,05286290,"Cedar Creek @ East Bethel, MN","Cedar Creek @ East Bethel, MN"
409,"Cedar Creek","Frederick County",VA,"United States",Southeast,,39.08121760,-78.32944860,,,39.08293,-78.32873,S1500,0.2,,,69,Frederick,Virginia,USGS,01634500,"Cedar Creek @ Frederick County, VA","Cedar Creek @ Frederick County, VA"
